[
  {
    "id": 3665544,
    "name": "Zipacón",
    "state": "",
    "country": "CO",
    "coord": {
      "lon": -74.380173,
      "lat": 4.75881
    }
  },
  {
    "id": 3665547,
    "name": "Zetaquira",
    "state": "",
    "country": "CO",
    "coord": {
      "lon": -73.168961,
      "lat": 5.28215
    }
  },
  {
    "id": 3665559,
    "name": "Zarzal",
    "state": "",
    "country": "CO",
    "coord": {
      "lon": -76.071503,
      "lat": 4.39462
    }
  },
  {
    "id": 3665566,
    "name": "Zaragoza",
    "state": "",
    "country": "CO",
    "coord": {
      "lon": -74.869186,
      "lat": 7.48971
    }
  },
  {
    "id": 3665587,
    "name": "Zapatoca",
    "state": "",
    "country": "CO",
    "coord": {
      "lon": -73.267677,
      "lat": 6.81532
    }
  },
  {
    "id": 3665616,
    "name": "Zambrano",
    "state": "",
    "country": "CO",
    "coord": {
      "lon": -74.8153,
      "lat": 9.74724
    }
  },
  {
    "id": 3665626,
    "name": "Zacarías",
    "state": "",
    "country": "CO",
    "coord": {
      "lon": -77.002769,
      "lat": 3.81584
    }
  },
  {
    "id": 3665657,
    "name": "Yumbo",
    "state": "",
    "country": "CO",
    "coord": {
      "lon": -76.491463,
      "lat": 3.58234
    }
  },
  {
    "id": 3665678,
    "name": "Yotoco",
    "state": "",
    "country": "CO",
    "coord": {
      "lon": -76.383636,
      "lat": 3.86048
    }
  },
  {
    "id": 3665688,
    "name": "Yopal",
    "state": "",
    "country": "CO",
    "coord": {
      "lon": -72.395859,
      "lat": 5.33775
    }
  },
  {
    "id": 3665691,
    "name": "Yondó",
    "state": "",
    "country": "CO",
    "coord": {
      "lon": -73.909721,
      "lat": 7.00621
    }
  },
  {
    "id": 3665693,
    "name": "Yolombó",
    "state": "",
    "country": "CO",
    "coord": {
      "lon": -75.011398,
      "lat": 6.59841
    }
  },
  {
    "id": 3665741,
    "name": "Yarumal",
    "state": "",
    "country": "CO",
    "coord": {
      "lon": -75.417381,
      "lat": 6.96321
    }
  },
  {
    "id": 3665792,
    "name": "Yalí",
    "state": "",
    "country": "CO",
    "coord": {
      "lon": -74.834297,
      "lat": 6.67456
    }
  },
  {
    "id": 3665803,
    "name": "Yaguará",
    "state": "",
    "country": "CO",
    "coord": {
      "lon": -75.517532,
      "lat": 2.66355
    }
  },
  {
    "id": 3665811,
    "name": "Yacuanquer",
    "state": "",
    "country": "CO",
    "coord": {
      "lon": -77.401688,
      "lat": 1.11577
    }
  },
  {
    "id": 3665813,
    "name": "Yacopí",
    "state": "",
    "country": "CO",
    "coord": {
      "lon": -74.338226,
      "lat": 5.45948
    }
  },
  {
    "id": 3665851,
    "name": "Viterbo",
    "state": "",
    "country": "CO",
    "coord": {
      "lon": -75.87159,
      "lat": 5.06242
    }
  },
  {
    "id": 3665860,
    "name": "Vistahermosa",
    "state": "",
    "country": "CO",
    "coord": {
      "lon": -73.751556,
      "lat": 3.12428
    }
  },
  {
    "id": 3665881,
    "name": "Viotá",
    "state": "",
    "country": "CO",
    "coord": {
      "lon": -74.521568,
      "lat": 4.43713
    }
  },
  {
    "id": 3665895,
    "name": "Villeta",
    "state": "",
    "country": "CO",
    "coord": {
      "lon": -74.47226,
      "lat": 5.00886
    }
  },
  {
    "id": 3665898,
    "name": "Villavieja",
    "state": "",
    "country": "CO",
    "coord": {
      "lon": -75.218643,
      "lat": 3.22052
    }
  },
  {
    "id": 3665900,
    "name": "Villavicencio",
    "state": "",
    "country": "CO",
    "coord": {
      "lon": -73.62664,
      "lat": 4.142
    }
  },
  {
    "id": 3665910,
    "name": "Villarrica",
    "state": "",
    "country": "CO",
    "coord": {
      "lon": -74.600357,
      "lat": 3.93502
    }
  },
  {
    "id": 3665913,
    "name": "Villa del Rosario",
    "state": "",
    "country": "CO",
    "coord": {
      "lon": -72.474167,
      "lat": 7.83389
    }
  },
  {
    "id": 3665918,
    "name": "Villa Rosa",
    "state": "",
    "country": "CO",
    "coord": {
      "lon": -74.099998,
      "lat": 4.81667
    }
  },
  {
    "id": 3665924,
    "name": "Villapinzón",
    "state": "",
    "country": "CO",
    "coord": {
      "lon": -73.594902,
      "lat": 5.21617
    }
  },
  {
    "id": 3665934,
    "name": "Villanueva",
    "state": "",
    "country": "CO",
    "coord": {
      "lon": -72.980003,
      "lat": 10.60528
    }
  },
  {
    "id": 3665935,
    "name": "Villanueva",
    "state": "",
    "country": "CO",
    "coord": {
      "lon": -75.273064,
      "lat": 10.44361
    }
  },
  {
    "id": 3665949,
    "name": "Villanueva",
    "state": "",
    "country": "CO",
    "coord": {
      "lon": -73.174202,
      "lat": 6.67169
    }
  },
  {
    "id": 3665951,
    "name": "Villanueva",
    "state": "",
    "country": "CO",
    "coord": {
      "lon": -71.966667,
      "lat": 5.28333
    }
  },
  {
    "id": 3665965,
    "name": "Villa Mejía",
    "state": "",
    "country": "CO",
    "coord": {
      "lon": -74.150261,
      "lat": 4.64967
    }
  },
  {
    "id": 3665973,
    "name": "Villamaría",
    "state": "",
    "country": "CO",
    "coord": {
      "lon": -75.514603,
      "lat": 5.04492
    }
  },
  {
    "id": 3665986,
    "name": "Villahermosa",
    "state": "",
    "country": "CO",
    "coord": {
      "lon": -75.116074,
      "lat": 5.03067
    }
  },
  {
    "id": 3665987,
    "name": "Villa Hermosa",
    "state": "",
    "country": "CO",
    "coord": {
      "lon": -74.48333,
      "lat": 4.76667
    }
  },
  {
    "id": 3665991,
    "name": "Villagómez",
    "state": "",
    "country": "CO",
    "coord": {
      "lon": -74.196136,
      "lat": 5.27372
    }
  },
  {
    "id": 3665992,
    "name": "Villagarzón",
    "state": "",
    "country": "CO",
    "coord": {
      "lon": -76.626671,
      "lat": 1.0375
    }
  },
  {
    "id": 3666003,
    "name": "Villa de Leyva",
    "state": "",
    "country": "CO",
    "coord": {
      "lon": -73.566673,
      "lat": 5.645
    }
  },
  {
    "id": 3666025,
    "name": "Vijes",
    "state": "",
    "country": "CO",
    "coord": {
      "lon": -76.442299,
      "lat": 3.69934
    }
  },
  {
    "id": 3666041,
    "name": "Vijagual",
    "state": "",
    "country": "CO",
    "coord": {
      "lon": -76.716667,
      "lat": 7.81667
    }
  },
  {
    "id": 3666042,
    "name": "Vigía del Fuerte",
    "state": "",
    "country": "CO",
    "coord": {
      "lon": -76.886276,
      "lat": 6.57891
    }
  },
  {
    "id": 3666075,
    "name": "Victoria",
    "state": "",
    "country": "CO",
    "coord": {
      "lon": -74.911011,
      "lat": 5.31648
    }
  },
  {
    "id": 3666082,
    "name": "Departamento del Vichada",
    "state": "",
    "country": "CO",
    "coord": {
      "lon": -69.5,
      "lat": 5.0
    }
  },
  {
    "id": 3666087,
    "name": "Vianí",
    "state": "",
    "country": "CO",
    "coord": {
      "lon": -74.562439,
      "lat": 4.87384
    }
  },
  {
    "id": 3666092,
    "name": "Vetas",
    "state": "",
    "country": "CO",
    "coord": {
      "lon": -72.871223,
      "lat": 7.30911
    }
  },
  {
    "id": 3666102,
    "name": "Versalles",
    "state": "",
    "country": "CO",
    "coord": {
      "lon": -76.198143,
      "lat": 4.57544
    }
  },
  {
    "id": 3666111,
    "name": "Vergara",
    "state": "",
    "country": "CO",
    "coord": {
      "lon": -74.34549,
      "lat": 5.11841
    }
  },
  {
    "id": 3666163,
    "name": "Ventaquemada",
    "state": "",
    "country": "CO",
    "coord": {
      "lon": -73.520752,
      "lat": 5.36753
    }
  },
  {
    "id": 3666193,
    "name": "Venecia",
    "state": "",
    "country": "CO",
    "coord": {
      "lon": -75.73806,
      "lat": 5.96278
    }
  },
  {
    "id": 3666203,
    "name": "Venecia",
    "state": "",
    "country": "CO",
    "coord": {
      "lon": -74.477463,
      "lat": 4.08808
    }
  },
  {
    "id": 3666226,
    "name": "Venadillo",
    "state": "",
    "country": "CO",
    "coord": {
      "lon": -74.929176,
      "lat": 4.7193
    }
  },
  {
    "id": 3666232,
    "name": "Vélez",
    "state": "",
    "country": "CO",
    "coord": {
      "lon": -73.673523,
      "lat": 6.01335
    }
  },
  {
    "id": 3666254,
    "name": "Departamento del Vaupés",
    "state": "",
    "country": "CO",
    "coord": {
      "lon": -70.75,
      "lat": 0.25
    }
  },
  {
    "id": 3666287,
    "name": "Valparaíso",
    "state": "",
    "country": "CO",
    "coord": {
      "lon": -75.624222,
      "lat": 5.615
    }
  },
  {
    "id": 3666291,
    "name": "Valparaíso",
    "state": "",
    "country": "CO",
    "coord": {
      "lon": -75.707047,
      "lat": 1.19512
    }
  },
  {
    "id": 3666304,
    "name": "Valledupar",
    "state": "",
    "country": "CO",
    "coord": {
      "lon": -73.25322,
      "lat": 10.46314
    }
  },
  {
    "id": 3666309,
    "name": "Valle de San Juan",
    "state": "",
    "country": "CO",
    "coord": {
      "lon": -75.117332,
      "lat": 4.19869
    }
  },
  {
    "id": 3666311,
    "name": "Valle de San José",
    "state": "",
    "country": "CO",
    "coord": {
      "lon": -73.143608,
      "lat": 6.4475
    }
  },
  {
    "id": 3666313,
    "name": "Departamento del Valle del Cauca",
    "state": "",
    "country": "CO",
    "coord": {
      "lon": -76.5,
      "lat": 3.75
    }
  },
  {
    "id": 3666314,
    "name": "Vallecito",
    "state": "",
    "country": "CO",
    "coord": {
      "lon": -75.486969,
      "lat": 6.72594
    }
  },
  {
    "id": 3666326,
    "name": "Valencia",
    "state": "",
    "country": "CO",
    "coord": {
      "lon": -76.149277,
      "lat": 8.25801
    }
  },
  {
    "id": 3666333,
    "name": "Valdivia",
    "state": "",
    "country": "CO",
    "coord": {
      "lon": -75.397781,
      "lat": 7.28889
    }
  },
  {
    "id": 3666363,
    "name": "Útica",
    "state": "",
    "country": "CO",
    "coord": {
      "lon": -74.481049,
      "lat": 5.18727
    }
  },
  {
    "id": 3666370,
    "name": "Usiacurí",
    "state": "",
    "country": "CO",
    "coord": {
      "lon": -74.98333,
      "lat": 10.75
    }
  },
  {
    "id": 3666381,
    "name": "Urumita",
    "state": "",
    "country": "CO",
    "coord": {
      "lon": -73.012321,
      "lat": 10.55894
    }
  },
  {
    "id": 3666395,
    "name": "Urrao",
    "state": "",
    "country": "CO",
    "coord": {
      "lon": -76.134201,
      "lat": 6.3152
    }
  },
  {
    "id": 3666409,
    "name": "Uribia",
    "state": "",
    "country": "CO",
    "coord": {
      "lon": -72.266037,
      "lat": 11.7139
    }
  },
  {
    "id": 3666436,
    "name": "Uramita",
    "state": "",
    "country": "CO",
    "coord": {
      "lon": -76.174171,
      "lat": 6.89944
    }
  },
  {
    "id": 3666475,
    "name": "Unguía",
    "state": "",
    "country": "CO",
    "coord": {
      "lon": -77.094528,
      "lat": 8.04335
    }
  },
  {
    "id": 3666481,
    "name": "Une",
    "state": "",
    "country": "CO",
    "coord": {
      "lon": -74.025284,
      "lat": 4.40306
    }
  },
  {
    "id": 3666493,
    "name": "Úmbita",
    "state": "",
    "country": "CO",
    "coord": {
      "lon": -73.456947,
      "lat": 5.22041
    }
  },
  {
    "id": 3666502,
    "name": "Ulloa",
    "state": "",
    "country": "CO",
    "coord": {
      "lon": -75.74028,
      "lat": 4.70444
    }
  },
  {
    "id": 3666519,
    "name": "Villa de San Diego de Ubaté",
    "state": "",
    "country": "CO",
    "coord": {
      "lon": -73.815742,
      "lat": 5.30933
    }
  },
  {
    "id": 3666522,
    "name": "Ubaque",
    "state": "",
    "country": "CO",
    "coord": {
      "lon": -73.937477,
      "lat": 4.48668
    }
  },
  {
    "id": 3666526,
    "name": "Ubalá",
    "state": "",
    "country": "CO",
    "coord": {
      "lon": -72.536942,
      "lat": 4.74778
    }
  },
  {
    "id": 3666550,
    "name": "Tuta",
    "state": "",
    "country": "CO",
    "coord": {
      "lon": -73.227791,
      "lat": 5.68966
    }
  },
  {
    "id": 3666562,
    "name": "Turmequé",
    "state": "",
    "country": "CO",
    "coord": {
      "lon": -73.490669,
      "lat": 5.3236
    }
  },
  {
    "id": 3666570,
    "name": "Turbo",
    "state": "",
    "country": "CO",
    "coord": {
      "lon": -76.726913,
      "lat": 8.09368
    }
  },
  {
    "id": 3666575,
    "name": "Turbaná",
    "state": "",
    "country": "CO",
    "coord": {
      "lon": -75.442223,
      "lat": 10.2717
    }
  },
  {
    "id": 3666577,
    "name": "Turbaco",
    "state": "",
    "country": "CO",
    "coord": {
      "lon": -75.411369,
      "lat": 10.32944
    }
  },
  {
    "id": 3666582,
    "name": "Túquerres",
    "state": "",
    "country": "CO",
    "coord": {
      "lon": -77.62085,
      "lat": 1.09234
    }
  },
  {
    "id": 3666608,
    "name": "Tunja",
    "state": "",
    "country": "CO",
    "coord": {
      "lon": -73.367783,
      "lat": 5.53528
    }
  },
  {
    "id": 3666640,
    "name": "Tumaco",
    "state": "",
    "country": "CO",
    "coord": {
      "lon": -78.815559,
      "lat": 1.79861
    }
  },
  {
    "id": 3666645,
    "name": "Tuluá",
    "state": "",
    "country": "CO",
    "coord": {
      "lon": -76.195358,
      "lat": 4.08466
    }
  },
  {
    "id": 3666673,
    "name": "Tubará",
    "state": "",
    "country": "CO",
    "coord": {
      "lon": -74.978889,
      "lat": 10.87444
    }
  },
  {
    "id": 3666680,
    "name": "Trujillo",
    "state": "",
    "country": "CO",
    "coord": {
      "lon": -76.31945,
      "lat": 4.21217
    }
  },
  {
    "id": 3666719,
    "name": "Trinidad",
    "state": "",
    "country": "CO",
    "coord": {
      "lon": -71.631111,
      "lat": 5.43056
    }
  },
  {
    "id": 3666755,
    "name": "Tres Esquinas",
    "state": "",
    "country": "CO",
    "coord": {
      "lon": -73.800003,
      "lat": 5.05
    }
  },
  {
    "id": 3666834,
    "name": "Totoró",
    "state": "",
    "country": "CO",
    "coord": {
      "lon": -76.401237,
      "lat": 2.51204
    }
  },
  {
    "id": 3666881,
    "name": "Toro",
    "state": "",
    "country": "CO",
    "coord": {
      "lon": -76.08139,
      "lat": 4.61167
    }
  },
  {
    "id": 3666887,
    "name": "Toribío",
    "state": "",
    "country": "CO",
    "coord": {
      "lon": -76.268387,
      "lat": 2.95481
    }
  },
  {
    "id": 3666903,
    "name": "Topaipí",
    "state": "",
    "country": "CO",
    "coord": {
      "lon": -74.302917,
      "lat": 5.33457
    }
  },
  {
    "id": 3666905,
    "name": "Tópaga",
    "state": "",
    "country": "CO",
    "coord": {
      "lon": -72.825829,
      "lat": 5.75979
    }
  },
  {
    "id": 3666936,
    "name": "Tolú Viejo",
    "state": "",
    "country": "CO",
    "coord": {
      "lon": -75.438637,
      "lat": 9.45082
    }
  },
  {
    "id": 3666939,
    "name": "Santiago de Tolú",
    "state": "",
    "country": "CO",
    "coord": {
      "lon": -75.58139,
      "lat": 9.52392
    }
  },
  {
    "id": 3666951,
    "name": "Departamento de Tolima",
    "state": "",
    "country": "CO",
    "coord": {
      "lon": -75.25,
      "lat": 3.75
    }
  },
  {
    "id": 3666959,
    "name": "Toledo",
    "state": "",
    "country": "CO",
    "coord": {
      "lon": -72.482948,
      "lat": 7.30984
    }
  },
  {
    "id": 3666997,
    "name": "Tocancipá",
    "state": "",
    "country": "CO",
    "coord": {
      "lon": -73.91301,
      "lat": 4.96531
    }
  },
  {
    "id": 3667003,
    "name": "Tocaima",
    "state": "",
    "country": "CO",
    "coord": {
      "lon": -74.634338,
      "lat": 4.4582
    }
  },
  {
    "id": 3667007,
    "name": "Toca",
    "state": "",
    "country": "CO",
    "coord": {
      "lon": -73.183983,
      "lat": 5.56392
    }
  },
  {
    "id": 3667023,
    "name": "Titiribí",
    "state": "",
    "country": "CO",
    "coord": {
      "lon": -75.793701,
      "lat": 6.06276
    }
  },
  {
    "id": 3667044,
    "name": "Tipacoque",
    "state": "",
    "country": "CO",
    "coord": {
      "lon": -72.691841,
      "lat": 6.42031
    }
  },
  {
    "id": 3667070,
    "name": "Timbiquí",
    "state": "",
    "country": "CO",
    "coord": {
      "lon": -77.665359,
      "lat": 2.7717
    }
  },
  {
    "id": 3667082,
    "name": "Timaná",
    "state": "",
    "country": "CO",
    "coord": {
      "lon": -75.931229,
      "lat": 1.97136
    }
  },
  {
    "id": 3667158,
    "name": "Tierralta",
    "state": "",
    "country": "CO",
    "coord": {
      "lon": -76.059174,
      "lat": 8.17361
    }
  },
  {
    "id": 3667202,
    "name": "Tibú",
    "state": "",
    "country": "CO",
    "coord": {
      "lon": -72.735832,
      "lat": 8.63896
    }
  },
  {
    "id": 3667211,
    "name": "Tibasosa",
    "state": "",
    "country": "CO",
    "coord": {
      "lon": -73.0,
      "lat": 5.75
    }
  },
  {
    "id": 3667218,
    "name": "Tibaná",
    "state": "",
    "country": "CO",
    "coord": {
      "lon": -73.396553,
      "lat": 5.31728
    }
  },
  {
    "id": 3667244,
    "name": "Tesalia",
    "state": "",
    "country": "CO",
    "coord": {
      "lon": -75.72921,
      "lat": 2.48587
    }
  },
  {
    "id": 3667247,
    "name": "Teruel",
    "state": "",
    "country": "CO",
    "coord": {
      "lon": -75.567383,
      "lat": 2.74193
    }
  },
  {
    "id": 3667288,
    "name": "Tenza",
    "state": "",
    "country": "CO",
    "coord": {
      "lon": -73.420769,
      "lat": 5.07664
    }
  },
  {
    "id": 3667290,
    "name": "Tenjo",
    "state": "",
    "country": "CO",
    "coord": {
      "lon": -74.144348,
      "lat": 4.8727
    }
  },
  {
    "id": 3667323,
    "name": "Tello",
    "state": "",
    "country": "CO",
    "coord": {
      "lon": -75.137779,
      "lat": 3.06694
    }
  },
  {
    "id": 3667351,
    "name": "Tausa",
    "state": "",
    "country": "CO",
    "coord": {
      "lon": -73.891281,
      "lat": 5.19903
    }
  },
  {
    "id": 3667355,
    "name": "Tauramena",
    "state": "",
    "country": "CO",
    "coord": {
      "lon": -72.749191,
      "lat": 5.01831
    }
  },
  {
    "id": 3667373,
    "name": "Tasco",
    "state": "",
    "country": "CO",
    "coord": {
      "lon": -72.780006,
      "lat": 5.91044
    }
  },
  {
    "id": 3667380,
    "name": "Tarso",
    "state": "",
    "country": "CO",
    "coord": {
      "lon": -75.821922,
      "lat": 5.86467
    }
  },
  {
    "id": 3667386,
    "name": "Tarqui",
    "state": "",
    "country": "CO",
    "coord": {
      "lon": -75.824188,
      "lat": 2.11248
    }
  },
  {
    "id": 3667402,
    "name": "Tarazá",
    "state": "",
    "country": "CO",
    "coord": {
      "lon": -75.400681,
      "lat": 7.58358
    }
  },
  {
    "id": 3667447,
    "name": "Tangua",
    "state": "",
    "country": "CO",
    "coord": {
      "lon": -77.394821,
      "lat": 1.09473
    }
  },
  {
    "id": 3667471,
    "name": "Taminango",
    "state": "",
    "country": "CO",
    "coord": {
      "lon": -77.286659,
      "lat": 1.57491
    }
  },
  {
    "id": 3667473,
    "name": "Támesis",
    "state": "",
    "country": "CO",
    "coord": {
      "lon": -75.713387,
      "lat": 5.66462
    }
  },
  {
    "id": 3667478,
    "name": "Tame",
    "state": "",
    "country": "CO",
    "coord": {
      "lon": -71.730042,
      "lat": 6.461
    }
  },
  {
    "id": 3667516,
    "name": "Támara",
    "state": "",
    "country": "CO",
    "coord": {
      "lon": -72.16333,
      "lat": 5.82972
    }
  },
  {
    "id": 3667528,
    "name": "Tamalameque",
    "state": "",
    "country": "CO",
    "coord": {
      "lon": -73.812286,
      "lat": 8.85221
    }
  },
  {
    "id": 3667547,
    "name": "Talaigua Viejo",
    "state": "",
    "country": "CO",
    "coord": {
      "lon": -74.585442,
      "lat": 9.31206
    }
  },
  {
    "id": 3667579,
    "name": "Tadó",
    "state": "",
    "country": "CO",
    "coord": {
      "lon": -76.564873,
      "lat": 5.26598
    }
  },
  {
    "id": 3667629,
    "name": "Tabio",
    "state": "",
    "country": "CO",
    "coord": {
      "lon": -74.093643,
      "lat": 4.91726
    }
  },
  {
    "id": 3667649,
    "name": "Sutatausa",
    "state": "",
    "country": "CO",
    "coord": {
      "lon": -73.852379,
      "lat": 5.24779
    }
  },
  {
    "id": 3667651,
    "name": "Sutamarchán",
    "state": "",
    "country": "CO",
    "coord": {
      "lon": -73.617012,
      "lat": 5.61538
    }
  },
  {
    "id": 3667660,
    "name": "Susacón",
    "state": "",
    "country": "CO",
    "coord": {
      "lon": -72.690102,
      "lat": 6.22978
    }
  },
  {
    "id": 3667665,
    "name": "Susa",
    "state": "",
    "country": "CO",
    "coord": {
      "lon": -73.814362,
      "lat": 5.4519
    }
  },
  {
    "id": 3667697,
    "name": "Supía",
    "state": "",
    "country": "CO",
    "coord": {
      "lon": -75.650719,
      "lat": 5.45303
    }
  },
  {
    "id": 3667701,
    "name": "Supatá",
    "state": "",
    "country": "CO",
    "coord": {
      "lon": -74.237198,
      "lat": 5.06097
    }
  },
  {
    "id": 3667717,
    "name": "Suesca",
    "state": "",
    "country": "CO",
    "coord": {
      "lon": -73.798447,
      "lat": 5.10289
    }
  },
  {
    "id": 3667725,
    "name": "Departamento de Sucre",
    "state": "",
    "country": "CO",
    "coord": {
      "lon": -75.0,
      "lat": 9.0
    }
  },
  {
    "id": 3667728,
    "name": "Sucre",
    "state": "",
    "country": "CO",
    "coord": {
      "lon": -74.72084,
      "lat": 8.81136
    }
  },
  {
    "id": 3667731,
    "name": "Sucre",
    "state": "",
    "country": "CO",
    "coord": {
      "lon": -73.791092,
      "lat": 5.91833
    }
  },
  {
    "id": 3667732,
    "name": "Sucre",
    "state": "",
    "country": "CO",
    "coord": {
      "lon": -76.924461,
      "lat": 2.03805
    }
  },
  {
    "id": 3667760,
    "name": "Subachoque",
    "state": "",
    "country": "CO",
    "coord": {
      "lon": -74.172989,
      "lat": 4.92614
    }
  },
  {
    "id": 3667764,
    "name": "Suaza",
    "state": "",
    "country": "CO",
    "coord": {
      "lon": -75.79454,
      "lat": 1.97611
    }
  },
  {
    "id": 3667772,
    "name": "Suárez",
    "state": "",
    "country": "CO",
    "coord": {
      "lon": -74.831978,
      "lat": 4.04906
    }
  },
  {
    "id": 3667773,
    "name": "Suárez",
    "state": "",
    "country": "CO",
    "coord": {
      "lon": -76.696442,
      "lat": 2.95395
    }
  },
  {
    "id": 3667780,
    "name": "Suan",
    "state": "",
    "country": "CO",
    "coord": {
      "lon": -74.880157,
      "lat": 10.33347
    }
  },
  {
    "id": 3667783,
    "name": "Suaita",
    "state": "",
    "country": "CO",
    "coord": {
      "lon": -73.440407,
      "lat": 6.1014
    }
  },
  {
    "id": 3667791,
    "name": "Sotomayor",
    "state": "",
    "country": "CO",
    "coord": {
      "lon": -77.50444,
      "lat": 1.51469
    }
  },
  {
    "id": 3667796,
    "name": "Sotaquirá",
    "state": "",
    "country": "CO",
    "coord": {
      "lon": -73.247581,
      "lat": 5.76483
    }
  },
  {
    "id": 3667807,
    "name": "Sopó",
    "state": "",
    "country": "CO",
    "coord": {
      "lon": -73.9384,
      "lat": 4.9075
    }
  },
  {
    "id": 3667811,
    "name": "Soplaviento",
    "state": "",
    "country": "CO",
    "coord": {
      "lon": -75.140831,
      "lat": 10.39306
    }
  },
  {
    "id": 3667816,
    "name": "Sopetrán",
    "state": "",
    "country": "CO",
    "coord": {
      "lon": -75.747498,
      "lat": 6.67028
    }
  },
  {
    "id": 3667820,
    "name": "Sonsón",
    "state": "",
    "country": "CO",
    "coord": {
      "lon": -75.310677,
      "lat": 5.71062
    }
  },
  {
    "id": 3667834,
    "name": "Somondoco",
    "state": "",
    "country": "CO",
    "coord": {
      "lon": -73.436111,
      "lat": 4.98778
    }
  },
  {
    "id": 3667849,
    "name": "Soledad",
    "state": "",
    "country": "CO",
    "coord": {
      "lon": -74.764587,
      "lat": 10.91843
    }
  },
  {
    "id": 3667868,
    "name": "Solano",
    "state": "",
    "country": "CO",
    "coord": {
      "lon": -75.253532,
      "lat": 0.69937
    }
  },
  {
    "id": 3667873,
    "name": "Sogamoso",
    "state": "",
    "country": "CO",
    "coord": {
      "lon": -72.933907,
      "lat": 5.71434
    }
  },
  {
    "id": 3667880,
    "name": "Socotá",
    "state": "",
    "country": "CO",
    "coord": {
      "lon": -72.635094,
      "lat": 6.04028
    }
  },
  {
    "id": 3667887,
    "name": "Socorro",
    "state": "",
    "country": "CO",
    "coord": {
      "lon": -73.260223,
      "lat": 6.46838
    }
  },
  {
    "id": 3667892,
    "name": "Socha Viejo",
    "state": "",
    "country": "CO",
    "coord": {
      "lon": -72.715027,
      "lat": 5.9817
    }
  },
  {
    "id": 3667901,
    "name": "Soatá",
    "state": "",
    "country": "CO",
    "coord": {
      "lon": -72.682831,
      "lat": 6.33369
    }
  },
  {
    "id": 3667905,
    "name": "Soacha",
    "state": "",
    "country": "CO",
    "coord": {
      "lon": -74.21682,
      "lat": 4.57937
    }
  },
  {
    "id": 3667918,
    "name": "Sitionuevo",
    "state": "",
    "country": "CO",
    "coord": {
      "lon": -74.72049,
      "lat": 10.77737
    }
  },
  {
    "id": 3667983,
    "name": "Sincelejo",
    "state": "",
    "country": "CO",
    "coord": {
      "lon": -75.397781,
      "lat": 9.30472
    }
  },
  {
    "id": 3667991,
    "name": "San Luis de Sincé",
    "state": "",
    "country": "CO",
    "coord": {
      "lon": -75.146751,
      "lat": 9.24391
    }
  },
  {
    "id": 3668012,
    "name": "Simití",
    "state": "",
    "country": "CO",
    "coord": {
      "lon": -73.943604,
      "lat": 7.9579
    }
  },
  {
    "id": 3668017,
    "name": "Simijaca",
    "state": "",
    "country": "CO",
    "coord": {
      "lon": -73.852272,
      "lat": 5.50291
    }
  },
  {
    "id": 3668023,
    "name": "Simacota",
    "state": "",
    "country": "CO",
    "coord": {
      "lon": -73.336884,
      "lat": 6.4429
    }
  },
  {
    "id": 3668025,
    "name": "Silvia",
    "state": "",
    "country": "CO",
    "coord": {
      "lon": -76.378532,
      "lat": 2.61103
    }
  },
  {
    "id": 3668028,
    "name": "Silvania",
    "state": "",
    "country": "CO",
    "coord": {
      "lon": -74.386703,
      "lat": 4.40367
    }
  },
  {
    "id": 3668033,
    "name": "Silos",
    "state": "",
    "country": "CO",
    "coord": {
      "lon": -72.756393,
      "lat": 7.20524
    }
  },
  {
    "id": 3668078,
    "name": "Sibundoy",
    "state": "",
    "country": "CO",
    "coord": {
      "lon": -76.92366,
      "lat": 1.20478
    }
  },
  {
    "id": 3668087,
    "name": "Sibaté",
    "state": "",
    "country": "CO",
    "coord": {
      "lon": -74.244987,
      "lat": 4.48425
    }
  },
  {
    "id": 3668096,
    "name": "Siachoque",
    "state": "",
    "country": "CO",
    "coord": {
      "lon": -73.244362,
      "lat": 5.51238
    }
  },
  {
    "id": 3668098,
    "name": "Siachia",
    "state": "",
    "country": "CO",
    "coord": {
      "lon": -72.699997,
      "lat": 6.33333
    }
  },
  {
    "id": 3668132,
    "name": "Sevilla",
    "state": "",
    "country": "CO",
    "coord": {
      "lon": -75.930847,
      "lat": 4.26425
    }
  },
  {
    "id": 3668138,
    "name": "Sesquilé",
    "state": "",
    "country": "CO",
    "coord": {
      "lon": -73.800827,
      "lat": 5.0475
    }
  },
  {
    "id": 3668175,
    "name": "Segovia",
    "state": "",
    "country": "CO",
    "coord": {
      "lon": -74.698898,
      "lat": 7.07993
    }
  },
  {
    "id": 3668228,
    "name": "Sasaima",
    "state": "",
    "country": "CO",
    "coord": {
      "lon": -74.43512,
      "lat": 4.96611
    }
  },
  {
    "id": 3668245,
    "name": "Sardinata",
    "state": "",
    "country": "CO",
    "coord": {
      "lon": -72.800713,
      "lat": 8.08289
    }
  },
  {
    "id": 3668257,
    "name": "Saravena",
    "state": "",
    "country": "CO",
    "coord": {
      "lon": -71.875229,
      "lat": 6.95376
    }
  },
  {
    "id": 3668263,
    "name": "Sarancocho",
    "state": "",
    "country": "CO",
    "coord": {
      "lon": -77.599998,
      "lat": 1.35
    }
  },
  {
    "id": 3668268,
    "name": "Sapuyes",
    "state": "",
    "country": "CO",
    "coord": {
      "lon": -77.620941,
      "lat": 1.03728
    }
  },
  {
    "id": 3668286,
    "name": "San Zenón",
    "state": "",
    "country": "CO",
    "coord": {
      "lon": -74.500366,
      "lat": 9.24217
    }
  },
  {
    "id": 3668292,
    "name": "San Vicente de Chucurí",
    "state": "",
    "country": "CO",
    "coord": {
      "lon": -73.409767,
      "lat": 6.881
    }
  },
  {
    "id": 3668302,
    "name": "San Vicente",
    "state": "",
    "country": "CO",
    "coord": {
      "lon": -75.336113,
      "lat": 6.23278
    }
  },
  {
    "id": 3668323,
    "name": "Santuario",
    "state": "",
    "country": "CO",
    "coord": {
      "lon": -75.264168,
      "lat": 6.13833
    }
  },
  {
    "id": 3668324,
    "name": "Santuario",
    "state": "",
    "country": "CO",
    "coord": {
      "lon": -75.963409,
      "lat": 5.07237
    }
  },
  {
    "id": 3668332,
    "name": "Santo Tomás",
    "state": "",
    "country": "CO",
    "coord": {
      "lon": -74.754509,
      "lat": 10.75773
    }
  },
  {
    "id": 3668373,
    "name": "Santo Domingo",
    "state": "",
    "country": "CO",
    "coord": {
      "lon": -75.164719,
      "lat": 6.47222
    }
  },
  {
    "id": 3668396,
    "name": "Santiago",
    "state": "",
    "country": "CO",
    "coord": {
      "lon": -72.716202,
      "lat": 7.86432
    }
  },
  {
    "id": 3668400,
    "name": "Santiago",
    "state": "",
    "country": "CO",
    "coord": {
      "lon": -77.004501,
      "lat": 1.14844
    }
  },
  {
    "id": 3668434,
    "name": "Santa Sofía",
    "state": "",
    "country": "CO",
    "coord": {
      "lon": -73.604042,
      "lat": 5.70908
    }
  },
  {
    "id": 3668447,
    "name": "Santa Rosa de Viterbo",
    "state": "",
    "country": "CO",
    "coord": {
      "lon": -72.98217,
      "lat": 5.87401
    }
  },
  {
    "id": 3668451,
    "name": "Santa Rosa de Osos",
    "state": "",
    "country": "CO",
    "coord": {
      "lon": -75.460297,
      "lat": 6.64738
    }
  },
  {
    "id": 3668454,
    "name": "Santa Rosa de Cabal",
    "state": "",
    "country": "CO",
    "coord": {
      "lon": -75.621391,
      "lat": 4.86806
    }
  },
  {
    "id": 3668472,
    "name": "Santa Rosa",
    "state": "",
    "country": "CO",
    "coord": {
      "lon": -75.36972,
      "lat": 10.44472
    }
  },
  {
    "id": 3668562,
    "name": "Santa Rita",
    "state": "",
    "country": "CO",
    "coord": {
      "lon": -68.361122,
      "lat": 4.86775
    }
  },
  {
    "id": 3668564,
    "name": "Santa Rita",
    "state": "",
    "country": "CO",
    "coord": {
      "lon": -75.148888,
      "lat": 4.41639
    }
  },
  {
    "id": 3668572,
    "name": "Santander de Quilichao",
    "state": "",
    "country": "CO",
    "coord": {
      "lon": -76.48494,
      "lat": 3.00945
    }
  },
  {
    "id": 3668578,
    "name": "Departamento de Santander",
    "state": "",
    "country": "CO",
    "coord": {
      "lon": -73.25,
      "lat": 7.0
    }
  },
  {
    "id": 3668594,
    "name": "Santana",
    "state": "",
    "country": "CO",
    "coord": {
      "lon": -73.481117,
      "lat": 6.0575
    }
  },
  {
    "id": 3668605,
    "name": "Santa Marta",
    "state": "",
    "country": "CO",
    "coord": {
      "lon": -74.199043,
      "lat": 11.24079
    }
  },
  {
    "id": 3668631,
    "name": "Santa María",
    "state": "",
    "country": "CO",
    "coord": {
      "lon": -73.262337,
      "lat": 4.86048
    }
  },
  {
    "id": 3668635,
    "name": "Santa María",
    "state": "",
    "country": "CO",
    "coord": {
      "lon": -75.650002,
      "lat": 2.95
    }
  },
  {
    "id": 3668655,
    "name": "Santa Lucía",
    "state": "",
    "country": "CO",
    "coord": {
      "lon": -74.960167,
      "lat": 10.3242
    }
  },
  {
    "id": 3668716,
    "name": "Santa Isabel",
    "state": "",
    "country": "CO",
    "coord": {
      "lon": -75.097992,
      "lat": 4.71418
    }
  },
  {
    "id": 3668861,
    "name": "Santa Catalina",
    "state": "",
    "country": "CO",
    "coord": {
      "lon": -75.288239,
      "lat": 10.60361
    }
  },
  {
    "id": 3668895,
    "name": "Santa Bárbara",
    "state": "",
    "country": "CO",
    "coord": {
      "lon": -75.567062,
      "lat": 5.87458
    }
  },
  {
    "id": 3668937,
    "name": "Santa Ana",
    "state": "",
    "country": "CO",
    "coord": {
      "lon": -74.568481,
      "lat": 9.32125
    }
  },
  {
    "id": 3669011,
    "name": "San Roque",
    "state": "",
    "country": "CO",
    "coord": {
      "lon": -75.0196,
      "lat": 6.48511
    }
  },
  {
    "id": 3669056,
    "name": "San Rafael",
    "state": "",
    "country": "CO",
    "coord": {
      "lon": -75.025887,
      "lat": 6.29436
    }
  },
  {
    "id": 3669067,
    "name": "San Rafael",
    "state": "",
    "country": "CO",
    "coord": {
      "lon": -74.773407,
      "lat": 4.27724
    }
  },
  {
    "id": 3669084,
    "name": "San Pelayo",
    "state": "",
    "country": "CO",
    "coord": {
      "lon": -75.836273,
      "lat": 8.95833
    }
  },
  {
    "id": 3669087,
    "name": "San Pedro de Urabá",
    "state": "",
    "country": "CO",
    "coord": {
      "lon": -76.376411,
      "lat": 8.27515
    }
  },
  {
    "id": 3669128,
    "name": "San Pedro",
    "state": "",
    "country": "CO",
    "coord": {
      "lon": -75.064758,
      "lat": 9.3956
    }
  },
  {
    "id": 3669133,
    "name": "San Pedro",
    "state": "",
    "country": "CO",
    "coord": {
      "lon": -72.51667,
      "lat": 7.83333
    }
  },
  {
    "id": 3669138,
    "name": "San Pedro",
    "state": "",
    "country": "CO",
    "coord": {
      "lon": -75.556557,
      "lat": 6.46221
    }
  },
  {
    "id": 3669156,
    "name": "San Pedro",
    "state": "",
    "country": "CO",
    "coord": {
      "lon": -76.227798,
      "lat": 3.99456
    }
  },
  {
    "id": 3669173,
    "name": "San Pablo de Borbur",
    "state": "",
    "country": "CO",
    "coord": {
      "lon": -74.062119,
      "lat": 5.66034
    }
  },
  {
    "id": 3669188,
    "name": "San Pablo",
    "state": "",
    "country": "CO",
    "coord": {
      "lon": -75.267754,
      "lat": 10.05154
    }
  },
  {
    "id": 3669214,
    "name": "San Pablo",
    "state": "",
    "country": "CO",
    "coord": {
      "lon": -77.013893,
      "lat": 1.6725
    }
  },
  {
    "id": 3669218,
    "name": "San Onofre",
    "state": "",
    "country": "CO",
    "coord": {
      "lon": -75.52626,
      "lat": 9.73586
    }
  },
  {
    "id": 3669293,
    "name": "La Dorada",
    "state": "",
    "country": "CO",
    "coord": {
      "lon": -76.91124,
      "lat": 0.34314
    }
  },
  {
    "id": 3669310,
    "name": "San Mateo",
    "state": "",
    "country": "CO",
    "coord": {
      "lon": -72.555634,
      "lat": 6.40111
    }
  },
  {
    "id": 3669332,
    "name": "San Martín",
    "state": "",
    "country": "CO",
    "coord": {
      "lon": -73.699577,
      "lat": 3.69637
    }
  },
  {
    "id": 3669346,
    "name": "San Marcos",
    "state": "",
    "country": "CO",
    "coord": {
      "lon": -75.12809,
      "lat": 8.65972
    }
  },
  {
    "id": 3669352,
    "name": "San Luis de Palenque",
    "state": "",
    "country": "CO",
    "coord": {
      "lon": -71.731667,
      "lat": 5.42139
    }
  },
  {
    "id": 3669355,
    "name": "San Luis de Gaceno",
    "state": "",
    "country": "CO",
    "coord": {
      "lon": -73.16851,
      "lat": 4.82052
    }
  },
  {
    "id": 3669358,
    "name": "Cubarral",
    "state": "",
    "country": "CO",
    "coord": {
      "lon": -73.84063,
      "lat": 3.79352
    }
  },
  {
    "id": 3669399,
    "name": "San Luis",
    "state": "",
    "country": "CO",
    "coord": {
      "lon": -75.094994,
      "lat": 4.13258
    }
  },
  {
    "id": 3669440,
    "name": "San Lorenzo",
    "state": "",
    "country": "CO",
    "coord": {
      "lon": -77.218979,
      "lat": 1.50628
    }
  },
  {
    "id": 3669454,
    "name": "San Juan Nepomuceno",
    "state": "",
    "country": "CO",
    "coord": {
      "lon": -75.081978,
      "lat": 9.95156
    }
  },
  {
    "id": 3669461,
    "name": "San Juan de Urabá",
    "state": "",
    "country": "CO",
    "coord": {
      "lon": -76.529694,
      "lat": 8.75924
    }
  },
  {
    "id": 3669469,
    "name": "San Juan del Cesar",
    "state": "",
    "country": "CO",
    "coord": {
      "lon": -73.003143,
      "lat": 10.77108
    }
  },
  {
    "id": 3669480,
    "name": "San Juan de Betulia",
    "state": "",
    "country": "CO",
    "coord": {
      "lon": -75.241028,
      "lat": 9.27345
    }
  },
  {
    "id": 3669482,
    "name": "San Juan de Arama",
    "state": "",
    "country": "CO",
    "coord": {
      "lon": -73.889442,
      "lat": 3.34639
    }
  },
  {
    "id": 3669545,
    "name": "San José de Miranda",
    "state": "",
    "country": "CO",
    "coord": {
      "lon": -72.733437,
      "lat": 6.6587
    }
  },
  {
    "id": 3669549,
    "name": "San José del Palmar",
    "state": "",
    "country": "CO",
    "coord": {
      "lon": -76.228333,
      "lat": 4.97417
    }
  },
  {
    "id": 3669557,
    "name": "San José de la Montaña",
    "state": "",
    "country": "CO",
    "coord": {
      "lon": -75.683327,
      "lat": 6.85028
    }
  },
  {
    "id": 3669623,
    "name": "San José",
    "state": "",
    "country": "CO",
    "coord": {
      "lon": -75.78833,
      "lat": 5.08583
    }
  },
  {
    "id": 3669654,
    "name": "San José",
    "state": "",
    "country": "CO",
    "coord": {
      "lon": -78.24482,
      "lat": 1.69659
    }
  },
  {
    "id": 3669718,
    "name": "San Jerónimo",
    "state": "",
    "country": "CO",
    "coord": {
      "lon": -75.728149,
      "lat": 6.44344
    }
  },
  {
    "id": 3669736,
    "name": "San Jacinto",
    "state": "",
    "country": "CO",
    "coord": {
      "lon": -75.121696,
      "lat": 9.82767
    }
  },
  {
    "id": 3669793,
    "name": "San Ignacio",
    "state": "",
    "country": "CO",
    "coord": {
      "lon": -75.383331,
      "lat": 5.55
    }
  },
  {
    "id": 3669799,
    "name": "San Hilario",
    "state": "",
    "country": "CO",
    "coord": {
      "lon": -74.087692,
      "lat": 4.74679
    }
  },
  {
    "id": 3669808,
    "name": "San Gil",
    "state": "",
    "country": "CO",
    "coord": {
      "lon": -73.133087,
      "lat": 6.55573
    }
  },
  {
    "id": 3669857,
    "name": "San Francisco",
    "state": "",
    "country": "CO",
    "coord": {
      "lon": -75.98333,
      "lat": 6.11667
    }
  },
  {
    "id": 3669859,
    "name": "San Francisco",
    "state": "",
    "country": "CO",
    "coord": {
      "lon": -73.210602,
      "lat": 5.56453
    }
  },
  {
    "id": 3669860,
    "name": "San Francisco",
    "state": "",
    "country": "CO",
    "coord": {
      "lon": -74.290062,
      "lat": 4.97372
    }
  },
  {
    "id": 3669881,
    "name": "San Francisco",
    "state": "",
    "country": "CO",
    "coord": {
      "lon": -76.878502,
      "lat": 1.17867
    }
  },
  {
    "id": 3669895,
    "name": "San Fernando",
    "state": "",
    "country": "CO",
    "coord": {
      "lon": -74.53389,
      "lat": 9.27972
    }
  },
  {
    "id": 3669929,
    "name": "San Estanislao",
    "state": "",
    "country": "CO",
    "coord": {
      "lon": -75.151108,
      "lat": 10.39833
    }
  },
  {
    "id": 3669938,
    "name": "Sandoná",
    "state": "",
    "country": "CO",
    "coord": {
      "lon": -77.474091,
      "lat": 1.29151
    }
  },
  {
    "id": 3669947,
    "name": "San Diego",
    "state": "",
    "country": "CO",
    "coord": {
      "lon": -73.180038,
      "lat": 10.33427
    }
  },
  {
    "id": 3669956,
    "name": "San Cristóbal",
    "state": "",
    "country": "CO",
    "coord": {
      "lon": -75.25248,
      "lat": 9.87809
    }
  },
  {
    "id": 3669977,
    "name": "San Cayetano",
    "state": "",
    "country": "CO",
    "coord": {
      "lon": -72.624298,
      "lat": 7.87707
    }
  },
  {
    "id": 3669981,
    "name": "San Cayetano",
    "state": "",
    "country": "CO",
    "coord": {
      "lon": -74.069542,
      "lat": 5.30153
    }
  },
  {
    "id": 3669987,
    "name": "San Carlos de Guaroa",
    "state": "",
    "country": "CO",
    "coord": {
      "lon": -73.243439,
      "lat": 3.71161
    }
  },
  {
    "id": 3669997,
    "name": "San Carlos",
    "state": "",
    "country": "CO",
    "coord": {
      "lon": -75.699471,
      "lat": 8.79577
    }
  },
  {
    "id": 3669998,
    "name": "San Carlos",
    "state": "",
    "country": "CO",
    "coord": {
      "lon": -74.773163,
      "lat": 7.79177
    }
  },
  {
    "id": 3670000,
    "name": "San Carlos",
    "state": "",
    "country": "CO",
    "coord": {
      "lon": -74.993149,
      "lat": 6.18789
    }
  },
  {
    "id": 3670011,
    "name": "San Calixto",
    "state": "",
    "country": "CO",
    "coord": {
      "lon": -73.207367,
      "lat": 8.4021
    }
  },
  {
    "id": 3670018,
    "name": "San Bernardo del Viento",
    "state": "",
    "country": "CO",
    "coord": {
      "lon": -75.952438,
      "lat": 9.3533
    }
  },
  {
    "id": 3670034,
    "name": "San Bernardo",
    "state": "",
    "country": "CO",
    "coord": {
      "lon": -77.030907,
      "lat": 1.52119
    }
  },
  {
    "id": 3670038,
    "name": "San Benito Abad",
    "state": "",
    "country": "CO",
    "coord": {
      "lon": -75.027092,
      "lat": 8.92901
    }
  },
  {
    "id": 3670061,
    "name": "San Antonio del Prado",
    "state": "",
    "country": "CO",
    "coord": {
      "lon": -75.657318,
      "lat": 6.18394
    }
  },
  {
    "id": 3670107,
    "name": "San Antonio",
    "state": "",
    "country": "CO",
    "coord": {
      "lon": -74.693459,
      "lat": 9.93303
    }
  },
  {
    "id": 3670141,
    "name": "San Antonio",
    "state": "",
    "country": "CO",
    "coord": {
      "lon": -73.599998,
      "lat": 5.21667
    }
  },
  {
    "id": 3670162,
    "name": "San Antonio",
    "state": "",
    "country": "CO",
    "coord": {
      "lon": -75.48008,
      "lat": 3.91423
    }
  },
  {
    "id": 3670199,
    "name": "San Antero",
    "state": "",
    "country": "CO",
    "coord": {
      "lon": -75.758911,
      "lat": 9.3741
    }
  },
  {
    "id": 3670205,
    "name": "Providencia y Santa Catalina, Departamento de Archipiélago de San Andrés",
    "state": "",
    "country": "CO",
    "coord": {
      "lon": -81.75,
      "lat": 12.5
    }
  },
  {
    "id": 3670207,
    "name": "San Andrés de Sotavento",
    "state": "",
    "country": "CO",
    "coord": {
      "lon": -75.508774,
      "lat": 9.14476
    }
  },
  {
    "id": 3670218,
    "name": "San Andrés",
    "state": "",
    "country": "CO",
    "coord": {
      "lon": -81.700562,
      "lat": 12.58472
    }
  },
  {
    "id": 3670224,
    "name": "San Andrés",
    "state": "",
    "country": "CO",
    "coord": {
      "lon": -72.849289,
      "lat": 6.81148
    }
  },
  {
    "id": 3670235,
    "name": "San Alonso",
    "state": "",
    "country": "CO",
    "coord": {
      "lon": -73.122223,
      "lat": 7.13306
    }
  },
  {
    "id": 3670242,
    "name": "San Alberto",
    "state": "",
    "country": "CO",
    "coord": {
      "lon": -73.392197,
      "lat": 7.76107
    }
  },
  {
    "id": 3670260,
    "name": "San Agustín",
    "state": "",
    "country": "CO",
    "coord": {
      "lon": -76.275574,
      "lat": 1.87863
    }
  },
  {
    "id": 3670280,
    "name": "Sampués",
    "state": "",
    "country": "CO",
    "coord": {
      "lon": -75.381668,
      "lat": 9.18361
    }
  },
  {
    "id": 3670293,
    "name": "Samaniego",
    "state": "",
    "country": "CO",
    "coord": {
      "lon": -77.595703,
      "lat": 1.3385
    }
  },
  {
    "id": 3670303,
    "name": "Samacá",
    "state": "",
    "country": "CO",
    "coord": {
      "lon": -73.485367,
      "lat": 5.49274
    }
  },
  {
    "id": 3670350,
    "name": "Salgar",
    "state": "",
    "country": "CO",
    "coord": {
      "lon": -75.965408,
      "lat": 5.96502
    }
  },
  {
    "id": 3670352,
    "name": "Salento",
    "state": "",
    "country": "CO",
    "coord": {
      "lon": -75.570282,
      "lat": 4.6375
    }
  },
  {
    "id": 3670357,
    "name": "Saldaña",
    "state": "",
    "country": "CO",
    "coord": {
      "lon": -75.015167,
      "lat": 3.92922
    }
  },
  {
    "id": 3670368,
    "name": "Salamina",
    "state": "",
    "country": "CO",
    "coord": {
      "lon": -74.794632,
      "lat": 10.49027
    }
  },
  {
    "id": 3670370,
    "name": "Salamina",
    "state": "",
    "country": "CO",
    "coord": {
      "lon": -75.487488,
      "lat": 5.40733
    }
  },
  {
    "id": 3670383,
    "name": "Saladoblanco",
    "state": "",
    "country": "CO",
    "coord": {
      "lon": -76.04335,
      "lat": 1.99244
    }
  },
  {
    "id": 3670419,
    "name": "Sahagún",
    "state": "",
    "country": "CO",
    "coord": {
      "lon": -75.442749,
      "lat": 8.94616
    }
  },
  {
    "id": 3670431,
    "name": "Sáchica",
    "state": "",
    "country": "CO",
    "coord": {
      "lon": -73.54184,
      "lat": 5.58453
    }
  },
  {
    "id": 3670447,
    "name": "Saboyá",
    "state": "",
    "country": "CO",
    "coord": {
      "lon": -73.769318,
      "lat": 5.69636
    }
  },
  {
    "id": 3670475,
    "name": "Sabaneta",
    "state": "",
    "country": "CO",
    "coord": {
      "lon": -75.599998,
      "lat": 6.15
    }
  },
  {
    "id": 3670478,
    "name": "Sabaneta",
    "state": "",
    "country": "CO",
    "coord": {
      "lon": -74.366669,
      "lat": 4.35
    }
  },
  {
    "id": 3670502,
    "name": "Sabanalarga",
    "state": "",
    "country": "CO",
    "coord": {
      "lon": -74.920631,
      "lat": 10.62962
    }
  },
  {
    "id": 3670506,
    "name": "Sabanalarga",
    "state": "",
    "country": "CO",
    "coord": {
      "lon": -75.817108,
      "lat": 6.84893
    }
  },
  {
    "id": 3670513,
    "name": "Sabanagrande",
    "state": "",
    "country": "CO",
    "coord": {
      "lon": -74.76059,
      "lat": 10.79115
    }
  },
  {
    "id": 3670514,
    "name": "Sabanagrande",
    "state": "",
    "country": "CO",
    "coord": {
      "lon": -74.682777,
      "lat": 10.71972
    }
  },
  {
    "id": 3670520,
    "name": "Sabana de Torres",
    "state": "",
    "country": "CO",
    "coord": {
      "lon": -73.495743,
      "lat": 7.3915
    }
  },
  {
    "id": 3670521,
    "name": "Sabana del Potrero",
    "state": "",
    "country": "CO",
    "coord": {
      "lon": -72.866783,
      "lat": 11.15699
    }
  },
  {
    "id": 3670587,
    "name": "Rovira",
    "state": "",
    "country": "CO",
    "coord": {
      "lon": -75.23996,
      "lat": 4.23922
    }
  },
  {
    "id": 3670595,
    "name": "Rosas",
    "state": "",
    "country": "CO",
    "coord": {
      "lon": -76.739861,
      "lat": 2.26093
    }
  },
  {
    "id": 3670629,
    "name": "Roncesvalles",
    "state": "",
    "country": "CO",
    "coord": {
      "lon": -75.604927,
      "lat": 4.0108
    }
  },
  {
    "id": 3670644,
    "name": "Roldanillo",
    "state": "",
    "country": "CO",
    "coord": {
      "lon": -76.154572,
      "lat": 4.41256
    }
  },
  {
    "id": 3670692,
    "name": "Rivera",
    "state": "",
    "country": "CO",
    "coord": {
      "lon": -75.256416,
      "lat": 2.77717
    }
  },
  {
    "id": 3670698,
    "name": "Departamento de Risaralda",
    "state": "",
    "country": "CO",
    "coord": {
      "lon": -76.0,
      "lat": 5.0
    }
  },
  {
    "id": 3670700,
    "name": "Risaralda",
    "state": "",
    "country": "CO",
    "coord": {
      "lon": -75.765953,
      "lat": 5.16647
    }
  },
  {
    "id": 3670709,
    "name": "Río Viejo",
    "state": "",
    "country": "CO",
    "coord": {
      "lon": -73.839012,
      "lat": 8.5874
    }
  },
  {
    "id": 3670718,
    "name": "Riosucio",
    "state": "",
    "country": "CO",
    "coord": {
      "lon": -77.116699,
      "lat": 7.44027
    }
  },
  {
    "id": 3670719,
    "name": "Riosucio",
    "state": "",
    "country": "CO",
    "coord": {
      "lon": -75.703178,
      "lat": 5.42164
    }
  },
  {
    "id": 3670730,
    "name": "Rionegro",
    "state": "",
    "country": "CO",
    "coord": {
      "lon": -75.373711,
      "lat": 6.15515
    }
  },
  {
    "id": 3670745,
    "name": "Riohacha",
    "state": "",
    "country": "CO",
    "coord": {
      "lon": -72.907219,
      "lat": 11.54444
    }
  },
  {
    "id": 3670754,
    "name": "Riofrío",
    "state": "",
    "country": "CO",
    "coord": {
      "lon": -76.288521,
      "lat": 4.1571
    }
  },
  {
    "id": 3670756,
    "name": "Río de Oro",
    "state": "",
    "country": "CO",
    "coord": {
      "lon": -73.38485,
      "lat": 8.2919
    }
  },
  {
    "id": 3670764,
    "name": "Rioblanco",
    "state": "",
    "country": "CO",
    "coord": {
      "lon": -75.680557,
      "lat": 3.53083
    }
  },
  {
    "id": 3670812,
    "name": "Ricaurte",
    "state": "",
    "country": "CO",
    "coord": {
      "lon": -74.764687,
      "lat": 4.28075
    }
  },
  {
    "id": 3670816,
    "name": "Ricaurte",
    "state": "",
    "country": "CO",
    "coord": {
      "lon": -77.937202,
      "lat": 1.1727
    }
  },
  {
    "id": 3670849,
    "name": "Retiro",
    "state": "",
    "country": "CO",
    "coord": {
      "lon": -75.503059,
      "lat": 6.05861
    }
  },
  {
    "id": 3670855,
    "name": "Restrepo",
    "state": "",
    "country": "CO",
    "coord": {
      "lon": -73.561417,
      "lat": 4.25833
    }
  },
  {
    "id": 3670856,
    "name": "Restrepo",
    "state": "",
    "country": "CO",
    "coord": {
      "lon": -76.522423,
      "lat": 3.82203
    }
  },
  {
    "id": 3670874,
    "name": "Repelón",
    "state": "",
    "country": "CO",
    "coord": {
      "lon": -75.129173,
      "lat": 10.49194
    }
  },
  {
    "id": 3670884,
    "name": "Remolino",
    "state": "",
    "country": "CO",
    "coord": {
      "lon": -74.716019,
      "lat": 10.70198
    }
  },
  {
    "id": 3670899,
    "name": "Remedios",
    "state": "",
    "country": "CO",
    "coord": {
      "lon": -74.533333,
      "lat": 7.03083
    }
  },
  {
    "id": 3670910,
    "name": "Regidor",
    "state": "",
    "country": "CO",
    "coord": {
      "lon": -73.82151,
      "lat": 8.66565
    }
  },
  {
    "id": 3670929,
    "name": "Recreo",
    "state": "",
    "country": "CO",
    "coord": {
      "lon": -77.533333,
      "lat": 1.4
    }
  },
  {
    "id": 3670966,
    "name": "Ráquira",
    "state": "",
    "country": "CO",
    "coord": {
      "lon": -73.632011,
      "lat": 5.53793
    }
  },
  {
    "id": 3671002,
    "name": "Ramiriquí",
    "state": "",
    "country": "CO",
    "coord": {
      "lon": -73.335442,
      "lat": 5.4002
    }
  },
  {
    "id": 3671018,
    "name": "Ragonvalia",
    "state": "",
    "country": "CO",
    "coord": {
      "lon": -72.475739,
      "lat": 7.57749
    }
  },
  {
    "id": 3671020,
    "name": "Apulo",
    "state": "",
    "country": "CO",
    "coord": {
      "lon": -74.592934,
      "lat": 4.51952
    }
  },
  {
    "id": 3671072,
    "name": "Quipile",
    "state": "",
    "country": "CO",
    "coord": {
      "lon": -74.563057,
      "lat": 4.74806
    }
  },
  {
    "id": 3671087,
    "name": "Quindío Department",
    "state": "",
    "country": "CO",
    "coord": {
      "lon": -75.666672,
      "lat": 4.5
    }
  },
  {
    "id": 3671091,
    "name": "Quinchía",
    "state": "",
    "country": "CO",
    "coord": {
      "lon": -75.730179,
      "lat": 5.33957
    }
  },
  {
    "id": 3671098,
    "name": "Quimbaya",
    "state": "",
    "country": "CO",
    "coord": {
      "lon": -75.762779,
      "lat": 4.62306
    }
  },
  {
    "id": 3671116,
    "name": "Quibdó",
    "state": "",
    "country": "CO",
    "coord": {
      "lon": -76.66111,
      "lat": 5.69472
    }
  },
  {
    "id": 3671119,
    "name": "Quetame",
    "state": "",
    "country": "CO",
    "coord": {
      "lon": -73.86142,
      "lat": 4.33234
    }
  },
  {
    "id": 3671161,
    "name": "Quebradanegra",
    "state": "",
    "country": "CO",
    "coord": {
      "lon": -74.479439,
      "lat": 5.11737
    }
  },
  {
    "id": 3671178,
    "name": "Departamento del Putumayo",
    "state": "",
    "country": "CO",
    "coord": {
      "lon": -76.0,
      "lat": 0.5
    }
  },
  {
    "id": 3671203,
    "name": "Purísima de la Concepción",
    "state": "",
    "country": "CO",
    "coord": {
      "lon": -75.721901,
      "lat": 9.23657
    }
  },
  {
    "id": 3671208,
    "name": "Purificación",
    "state": "",
    "country": "CO",
    "coord": {
      "lon": -74.93129,
      "lat": 3.8587
    }
  },
  {
    "id": 3671216,
    "name": "Pureto",
    "state": "",
    "country": "CO",
    "coord": {
      "lon": -76.333328,
      "lat": 5.33333
    }
  },
  {
    "id": 3671228,
    "name": "Pupiales",
    "state": "",
    "country": "CO",
    "coord": {
      "lon": -77.640266,
      "lat": 0.87136
    }
  },
  {
    "id": 3671287,
    "name": "Puerto Wilches",
    "state": "",
    "country": "CO",
    "coord": {
      "lon": -73.896011,
      "lat": 7.34828
    }
  },
  {
    "id": 3671308,
    "name": "Puerto Triunfo",
    "state": "",
    "country": "CO",
    "coord": {
      "lon": -74.640289,
      "lat": 5.87262
    }
  },
  {
    "id": 3671315,
    "name": "Puerto Tejada",
    "state": "",
    "country": "CO",
    "coord": {
      "lon": -76.416679,
      "lat": 3.23114
    }
  },
  {
    "id": 3671325,
    "name": "Puerto Santander",
    "state": "",
    "country": "CO",
    "coord": {
      "lon": -72.406303,
      "lat": 8.36361
    }
  },
  {
    "id": 3671330,
    "name": "Puerto Salgar",
    "state": "",
    "country": "CO",
    "coord": {
      "lon": -74.654358,
      "lat": 5.46304
    }
  },
  {
    "id": 3671337,
    "name": "Puerto Rondón",
    "state": "",
    "country": "CO",
    "coord": {
      "lon": -71.099998,
      "lat": 6.28048
    }
  },
  {
    "id": 3671346,
    "name": "Puerto Yuca",
    "state": "",
    "country": "CO",
    "coord": {
      "lon": -73.208328,
      "lat": 2.93833
    }
  },
  {
    "id": 3671348,
    "name": "Puerto Rico",
    "state": "",
    "country": "CO",
    "coord": {
      "lon": -75.144997,
      "lat": 1.91417
    }
  },
  {
    "id": 3671371,
    "name": "Puerto Parra",
    "state": "",
    "country": "CO",
    "coord": {
      "lon": -74.057343,
      "lat": 6.65149
    }
  },
  {
    "id": 3671381,
    "name": "Puerto Niño",
    "state": "",
    "country": "CO",
    "coord": {
      "lon": -74.900002,
      "lat": 10.25
    }
  },
  {
    "id": 3671387,
    "name": "Puerto Nariño",
    "state": "",
    "country": "CO",
    "coord": {
      "lon": -70.383057,
      "lat": -3.77028
    }
  },
  {
    "id": 3671418,
    "name": "Puerto López",
    "state": "",
    "country": "CO",
    "coord": {
      "lon": -72.955971,
      "lat": 4.08451
    }
  },
  {
    "id": 3671424,
    "name": "Puerto Lleras",
    "state": "",
    "country": "CO",
    "coord": {
      "lon": -73.404404,
      "lat": 3.02225
    }
  },
  {
    "id": 3671437,
    "name": "Puerto Leguízamo",
    "state": "",
    "country": "CO",
    "coord": {
      "lon": -74.781891,
      "lat": -0.19337
    }
  },
  {
    "id": 3671450,
    "name": "Inírida",
    "state": "",
    "country": "CO",
    "coord": {
      "lon": -67.923889,
      "lat": 3.86528
    }
  },
  {
    "id": 3671470,
    "name": "Puerto Escondido",
    "state": "",
    "country": "CO",
    "coord": {
      "lon": -76.26413,
      "lat": 9.0181
    }
  },
  {
    "id": 3671497,
    "name": "Puerto Colombia",
    "state": "",
    "country": "CO",
    "coord": {
      "lon": -74.95472,
      "lat": 10.98778
    }
  },
  {
    "id": 3671519,
    "name": "Puerto Carreño",
    "state": "",
    "country": "CO",
    "coord": {
      "lon": -67.485878,
      "lat": 6.18903
    }
  },
  {
    "id": 3671531,
    "name": "Puerto Boyacá",
    "state": "",
    "country": "CO",
    "coord": {
      "lon": -74.588463,
      "lat": 5.97584
    }
  },
  {
    "id": 3671540,
    "name": "Puerto Berrío",
    "state": "",
    "country": "CO",
    "coord": {
      "lon": -74.403259,
      "lat": 6.49156
    }
  },
  {
    "id": 3671549,
    "name": "Puerto Asís",
    "state": "",
    "country": "CO",
    "coord": {
      "lon": -76.500748,
      "lat": 0.51328
    }
  },
  {
    "id": 3671576,
    "name": "Puerres",
    "state": "",
    "country": "CO",
    "coord": {
      "lon": -77.266609,
      "lat": 1.19374
    }
  },
  {
    "id": 3671591,
    "name": "Puente Nacional",
    "state": "",
    "country": "CO",
    "coord": {
      "lon": -73.678101,
      "lat": 5.8774
    }
  },
  {
    "id": 3671604,
    "name": "Puente Aranda",
    "state": "",
    "country": "CO",
    "coord": {
      "lon": -74.116669,
      "lat": 4.63333
    }
  },
  {
    "id": 3671615,
    "name": "Puebloviejo",
    "state": "",
    "country": "CO",
    "coord": {
      "lon": -74.284378,
      "lat": 10.99376
    }
  },
  {
    "id": 3671630,
    "name": "Pueblorrico",
    "state": "",
    "country": "CO",
    "coord": {
      "lon": -75.841011,
      "lat": 5.79176
    }
  },
  {
    "id": 3671633,
    "name": "Pueblo Rico",
    "state": "",
    "country": "CO",
    "coord": {
      "lon": -76.036392,
      "lat": 5.23833
    }
  },
  {
    "id": 3671655,
    "name": "Pueblo Nuevo",
    "state": "",
    "country": "CO",
    "coord": {
      "lon": -74.958153,
      "lat": 8.2411
    }
  },
  {
    "id": 3671714,
    "name": "Providencia",
    "state": "",
    "country": "CO",
    "coord": {
      "lon": -77.463997,
      "lat": 1.56976
    }
  },
  {
    "id": 3671732,
    "name": "Pringamosa",
    "state": "",
    "country": "CO",
    "coord": {
      "lon": -75.886703,
      "lat": 8.76566
    }
  },
  {
    "id": 3671765,
    "name": "Prado",
    "state": "",
    "country": "CO",
    "coord": {
      "lon": -74.929321,
      "lat": 3.75024
    }
  },
  {
    "id": 3671772,
    "name": "Pradera",
    "state": "",
    "country": "CO",
    "coord": {
      "lon": -76.24472,
      "lat": 3.42111
    }
  },
  {
    "id": 3671848,
    "name": "Potosí",
    "state": "",
    "country": "CO",
    "coord": {
      "lon": -77.572159,
      "lat": 0.80739
    }
  },
  {
    "id": 3671901,
    "name": "Pore",
    "state": "",
    "country": "CO",
    "coord": {
      "lon": -71.99472,
      "lat": 5.72722
    }
  },
  {
    "id": 3671916,
    "name": "Popayán",
    "state": "",
    "country": "CO",
    "coord": {
      "lon": -76.613159,
      "lat": 2.43823
    }
  },
  {
    "id": 3671936,
    "name": "Ponedera",
    "state": "",
    "country": "CO",
    "coord": {
      "lon": -74.750259,
      "lat": 10.64104
    }
  },
  {
    "id": 3671950,
    "name": "Polonuevo",
    "state": "",
    "country": "CO",
    "coord": {
      "lon": -74.853439,
      "lat": 10.77697
    }
  },
  {
    "id": 3671961,
    "name": "Policarpa",
    "state": "",
    "country": "CO",
    "coord": {
      "lon": -77.46199,
      "lat": 1.63231
    }
  },
  {
    "id": 3672068,
    "name": "Planeta Rica",
    "state": "",
    "country": "CO",
    "coord": {
      "lon": -75.588333,
      "lat": 8.41472
    }
  },
  {
    "id": 3672077,
    "name": "Planadas",
    "state": "",
    "country": "CO",
    "coord": {
      "lon": -75.645058,
      "lat": 3.19698
    }
  },
  {
    "id": 3672086,
    "name": "Pizarro",
    "state": "",
    "country": "CO",
    "coord": {
      "lon": -77.365982,
      "lat": 4.95334
    }
  },
  {
    "id": 3672087,
    "name": "Salahonda",
    "state": "",
    "country": "CO",
    "coord": {
      "lon": -78.721672,
      "lat": 2.10194
    }
  },
  {
    "id": 3672093,
    "name": "Pivijay",
    "state": "",
    "country": "CO",
    "coord": {
      "lon": -74.616211,
      "lat": 10.46168
    }
  },
  {
    "id": 3672110,
    "name": "Pitalito",
    "state": "",
    "country": "CO",
    "coord": {
      "lon": -76.047852,
      "lat": 1.84966
    }
  },
  {
    "id": 3672123,
    "name": "Pital",
    "state": "",
    "country": "CO",
    "coord": {
      "lon": -75.80442,
      "lat": 2.2665
    }
  },
  {
    "id": 3672176,
    "name": "Piojó",
    "state": "",
    "country": "CO",
    "coord": {
      "lon": -75.107758,
      "lat": 10.74846
    }
  },
  {
    "id": 3672197,
    "name": "Pinillos",
    "state": "",
    "country": "CO",
    "coord": {
      "lon": -74.467712,
      "lat": 8.91925
    }
  },
  {
    "id": 3672249,
    "name": "Pijiño del Carmen",
    "state": "",
    "country": "CO",
    "coord": {
      "lon": -74.453018,
      "lat": 9.32908
    }
  },
  {
    "id": 3672255,
    "name": "Pijao",
    "state": "",
    "country": "CO",
    "coord": {
      "lon": -75.703484,
      "lat": 4.33419
    }
  },
  {
    "id": 3672261,
    "name": "Piendamó",
    "state": "",
    "country": "CO",
    "coord": {
      "lon": -76.989166,
      "lat": 2.64306
    }
  },
  {
    "id": 3672290,
    "name": "Piedras",
    "state": "",
    "country": "CO",
    "coord": {
      "lon": -74.881752,
      "lat": 4.53833
    }
  },
  {
    "id": 3672295,
    "name": "Piedrancha",
    "state": "",
    "country": "CO",
    "coord": {
      "lon": -77.8489,
      "lat": 1.1374
    }
  },
  {
    "id": 3672327,
    "name": "Pie de Pató",
    "state": "",
    "country": "CO",
    "coord": {
      "lon": -76.974487,
      "lat": 5.51604
    }
  },
  {
    "id": 3672328,
    "name": "Piedecuesta",
    "state": "",
    "country": "CO",
    "coord": {
      "lon": -73.04953,
      "lat": 6.98789
    }
  },
  {
    "id": 3672428,
    "name": "Pesca",
    "state": "",
    "country": "CO",
    "coord": {
      "lon": -73.050003,
      "lat": 5.55
    }
  },
  {
    "id": 3672486,
    "name": "Pereira",
    "state": "",
    "country": "CO",
    "coord": {
      "lon": -75.696114,
      "lat": 4.81333
    }
  },
  {
    "id": 3672512,
    "name": "Peque",
    "state": "",
    "country": "CO",
    "coord": {
      "lon": -75.909264,
      "lat": 7.02122
    }
  },
  {
    "id": 3672521,
    "name": "Pensilvania",
    "state": "",
    "country": "CO",
    "coord": {
      "lon": -75.161217,
      "lat": 5.38346
    }
  },
  {
    "id": 3672532,
    "name": "Peñón de Opia",
    "state": "",
    "country": "CO",
    "coord": {
      "lon": -75.333328,
      "lat": 2.91667
    }
  },
  {
    "id": 3672540,
    "name": "Peñol",
    "state": "",
    "country": "CO",
    "coord": {
      "lon": -75.242981,
      "lat": 6.21829
    }
  },
  {
    "id": 3672599,
    "name": "Pelaya",
    "state": "",
    "country": "CO",
    "coord": {
      "lon": -73.66452,
      "lat": 8.68819
    }
  },
  {
    "id": 3672633,
    "name": "Pedraza",
    "state": "",
    "country": "CO",
    "coord": {
      "lon": -74.915039,
      "lat": 10.18739
    }
  },
  {
    "id": 3672651,
    "name": "Paz de Río",
    "state": "",
    "country": "CO",
    "coord": {
      "lon": -72.750504,
      "lat": 5.98452
    }
  },
  {
    "id": 3672665,
    "name": "Payán",
    "state": "",
    "country": "CO",
    "coord": {
      "lon": -78.205002,
      "lat": 1.935
    }
  },
  {
    "id": 3672698,
    "name": "Pauna",
    "state": "",
    "country": "CO",
    "coord": {
      "lon": -73.982498,
      "lat": 5.65861
    }
  },
  {
    "id": 3672761,
    "name": "Patía",
    "state": "",
    "country": "CO",
    "coord": {
      "lon": -77.052727,
      "lat": 2.06895
    }
  },
  {
    "id": 3672778,
    "name": "Pasto",
    "state": "",
    "country": "CO",
    "coord": {
      "lon": -77.281113,
      "lat": 1.21361
    }
  },
  {
    "id": 3672813,
    "name": "Pasca",
    "state": "",
    "country": "CO",
    "coord": {
      "lon": -74.30056,
      "lat": 4.30722
    }
  },
  {
    "id": 3672997,
    "name": "Pandi",
    "state": "",
    "country": "CO",
    "coord": {
      "lon": -74.487503,
      "lat": 4.19111
    }
  },
  {
    "id": 3673045,
    "name": "Pamplona",
    "state": "",
    "country": "CO",
    "coord": {
      "lon": -72.647949,
      "lat": 7.37565
    }
  },
  {
    "id": 3673126,
    "name": "Palocabildo",
    "state": "",
    "country": "CO",
    "coord": {
      "lon": -75.017319,
      "lat": 5.11705
    }
  },
  {
    "id": 3673143,
    "name": "Palmito",
    "state": "",
    "country": "CO",
    "coord": {
      "lon": -75.550003,
      "lat": 9.33333
    }
  },
  {
    "id": 3673164,
    "name": "Palmira",
    "state": "",
    "country": "CO",
    "coord": {
      "lon": -76.303612,
      "lat": 3.53944
    }
  },
  {
    "id": 3673220,
    "name": "Palmar de Varela",
    "state": "",
    "country": "CO",
    "coord": {
      "lon": -74.754433,
      "lat": 10.74055
    }
  },
  {
    "id": 3673268,
    "name": "Palestina",
    "state": "",
    "country": "CO",
    "coord": {
      "lon": -73.5,
      "lat": 7.4
    }
  },
  {
    "id": 3673269,
    "name": "Palestina",
    "state": "",
    "country": "CO",
    "coord": {
      "lon": -75.622421,
      "lat": 5.0194
    }
  },
  {
    "id": 3673275,
    "name": "Palestina",
    "state": "",
    "country": "CO",
    "coord": {
      "lon": -76.134033,
      "lat": 1.72362
    }
  },
  {
    "id": 3673286,
    "name": "Palermo",
    "state": "",
    "country": "CO",
    "coord": {
      "lon": -75.4375,
      "lat": 2.89167
    }
  },
  {
    "id": 3673352,
    "name": "Pajarito",
    "state": "",
    "country": "CO",
    "coord": {
      "lon": -72.702766,
      "lat": 5.2929
    }
  },
  {
    "id": 3673368,
    "name": "Paispamba",
    "state": "",
    "country": "CO",
    "coord": {
      "lon": -76.610863,
      "lat": 2.25462
    }
  },
  {
    "id": 3673369,
    "name": "Paipa",
    "state": "",
    "country": "CO",
    "coord": {
      "lon": -73.117081,
      "lat": 5.78013
    }
  },
  {
    "id": 3673379,
    "name": "Pailitas",
    "state": "",
    "country": "CO",
    "coord": {
      "lon": -73.625481,
      "lat": 8.95652
    }
  },
  {
    "id": 3673386,
    "name": "Paicol",
    "state": "",
    "country": "CO",
    "coord": {
      "lon": -75.775002,
      "lat": 2.44962
    }
  },
  {
    "id": 3673397,
    "name": "Páez",
    "state": "",
    "country": "CO",
    "coord": {
      "lon": -73.051224,
      "lat": 5.10112
    }
  },
  {
    "id": 3673398,
    "name": "Belalcázar",
    "state": "",
    "country": "CO",
    "coord": {
      "lon": -75.992783,
      "lat": 2.65472
    }
  },
  {
    "id": 3673407,
    "name": "Padilla",
    "state": "",
    "country": "CO",
    "coord": {
      "lon": -76.31385,
      "lat": 3.22038
    }
  },
  {
    "id": 3673413,
    "name": "Pácora",
    "state": "",
    "country": "CO",
    "coord": {
      "lon": -75.459297,
      "lat": 5.52708
    }
  },
  {
    "id": 3673424,
    "name": "Pacho",
    "state": "",
    "country": "CO",
    "coord": {
      "lon": -74.159767,
      "lat": 5.13278
    }
  },
  {
    "id": 3673431,
    "name": "Pachavita",
    "state": "",
    "country": "CO",
    "coord": {
      "lon": -73.397392,
      "lat": 5.13969
    }
  },
  {
    "id": 3673455,
    "name": "Ovejas",
    "state": "",
    "country": "CO",
    "coord": {
      "lon": -75.223824,
      "lat": 9.53248
    }
  },
  {
    "id": 3673475,
    "name": "Otanche",
    "state": "",
    "country": "CO",
    "coord": {
      "lon": -74.182487,
      "lat": 5.65672
    }
  },
  {
    "id": 3673482,
    "name": "Ospina",
    "state": "",
    "country": "CO",
    "coord": {
      "lon": -77.565536,
      "lat": 1.0595
    }
  },
  {
    "id": 3673511,
    "name": "Ortega",
    "state": "",
    "country": "CO",
    "coord": {
      "lon": -75.221687,
      "lat": 3.9361
    }
  },
  {
    "id": 3673536,
    "name": "Orocué",
    "state": "",
    "country": "CO",
    "coord": {
      "lon": -71.335419,
      "lat": 4.79118
    }
  },
  {
    "id": 3673578,
    "name": "Oporapa",
    "state": "",
    "country": "CO",
    "coord": {
      "lon": -75.976753,
      "lat": 2.05015
    }
  },
  {
    "id": 3673590,
    "name": "Onzaga",
    "state": "",
    "country": "CO",
    "coord": {
      "lon": -72.817261,
      "lat": 6.34434
    }
  },
  {
    "id": 3673609,
    "name": "Olaya Herrera",
    "state": "",
    "country": "CO",
    "coord": {
      "lon": -77.496651,
      "lat": 1.25609
    }
  },
  {
    "id": 3673637,
    "name": "Oiba",
    "state": "",
    "country": "CO",
    "coord": {
      "lon": -73.298759,
      "lat": 6.26388
    }
  },
  {
    "id": 3673662,
    "name": "Ocaña",
    "state": "",
    "country": "CO",
    "coord": {
      "lon": -73.356041,
      "lat": 8.23773
    }
  },
  {
    "id": 3673668,
    "name": "Ocache",
    "state": "",
    "country": "CO",
    "coord": {
      "lon": -76.486458,
      "lat": 3.70638
    }
  },
  {
    "id": 3673676,
    "name": "Obando",
    "state": "",
    "country": "CO",
    "coord": {
      "lon": -75.973892,
      "lat": 4.57583
    }
  },
  {
    "id": 3673690,
    "name": "Nuquí",
    "state": "",
    "country": "CO",
    "coord": {
      "lon": -77.270828,
      "lat": 5.7125
    }
  },
  {
    "id": 3673695,
    "name": "Nunchía",
    "state": "",
    "country": "CO",
    "coord": {
      "lon": -72.198608,
      "lat": 5.64056
    }
  },
  {
    "id": 3673756,
    "name": "Nueva Granada",
    "state": "",
    "country": "CO",
    "coord": {
      "lon": -74.393044,
      "lat": 9.80168
    }
  },
  {
    "id": 3673783,
    "name": "Nóvita",
    "state": "",
    "country": "CO",
    "coord": {
      "lon": -76.605263,
      "lat": 4.95511
    }
  },
  {
    "id": 3673798,
    "name": "Departamento de Norte de Santander",
    "state": "",
    "country": "CO",
    "coord": {
      "lon": -73.0,
      "lat": 8.0
    }
  },
  {
    "id": 3673811,
    "name": "Norcasia",
    "state": "",
    "country": "CO",
    "coord": {
      "lon": -74.885208,
      "lat": 5.57782
    }
  },
  {
    "id": 3673826,
    "name": "Nocaima",
    "state": "",
    "country": "CO",
    "coord": {
      "lon": -74.377998,
      "lat": 5.06983
    }
  },
  {
    "id": 3673829,
    "name": "Nobsa",
    "state": "",
    "country": "CO",
    "coord": {
      "lon": -72.940987,
      "lat": 5.76978
    }
  },
  {
    "id": 3673849,
    "name": "Nilo",
    "state": "",
    "country": "CO",
    "coord": {
      "lon": -74.620827,
      "lat": 4.30604
    }
  },
  {
    "id": 3673887,
    "name": "Nemocón",
    "state": "",
    "country": "CO",
    "coord": {
      "lon": -73.883331,
      "lat": 5.05
    }
  },
  {
    "id": 3673899,
    "name": "Neiva",
    "state": "",
    "country": "CO",
    "coord": {
      "lon": -75.281883,
      "lat": 2.9273
    }
  },
  {
    "id": 3673902,
    "name": "Neira",
    "state": "",
    "country": "CO",
    "coord": {
      "lon": -75.520012,
      "lat": 5.1665
    }
  },
  {
    "id": 3673974,
    "name": "Necoclí",
    "state": "",
    "country": "CO",
    "coord": {
      "lon": -76.785973,
      "lat": 8.42342
    }
  },
  {
    "id": 3673976,
    "name": "Nechí",
    "state": "",
    "country": "CO",
    "coord": {
      "lon": -74.775726,
      "lat": 8.09419
    }
  },
  {
    "id": 3674010,
    "name": "Natagaima",
    "state": "",
    "country": "CO",
    "coord": {
      "lon": -75.094147,
      "lat": 3.62057
    }
  },
  {
    "id": 3674012,
    "name": "Nátaga",
    "state": "",
    "country": "CO",
    "coord": {
      "lon": -75.808517,
      "lat": 2.54359
    }
  },
  {
    "id": 3674021,
    "name": "Departamento de Nariño",
    "state": "",
    "country": "CO",
    "coord": {
      "lon": -78.0,
      "lat": 1.5
    }
  },
  {
    "id": 3674027,
    "name": "Nariño",
    "state": "",
    "country": "CO",
    "coord": {
      "lon": -75.176559,
      "lat": 5.60893
    }
  },
  {
    "id": 3674029,
    "name": "Nariño",
    "state": "",
    "country": "CO",
    "coord": {
      "lon": -74.827309,
      "lat": 4.39781
    }
  },
  {
    "id": 3674031,
    "name": "Nariño",
    "state": "",
    "country": "CO",
    "coord": {
      "lon": -77.360497,
      "lat": 1.29546
    }
  },
  {
    "id": 3674121,
    "name": "Muzo",
    "state": "",
    "country": "CO",
    "coord": {
      "lon": -74.10778,
      "lat": 5.53528
    }
  },
  {
    "id": 3674130,
    "name": "Mutatá",
    "state": "",
    "country": "CO",
    "coord": {
      "lon": -76.435638,
      "lat": 7.24407
    }
  },
  {
    "id": 3674161,
    "name": "Murindó",
    "state": "",
    "country": "CO",
    "coord": {
      "lon": -76.754387,
      "lat": 6.98481
    }
  },
  {
    "id": 3674166,
    "name": "Murillo",
    "state": "",
    "country": "CO",
    "coord": {
      "lon": -75.171509,
      "lat": 4.87393
    }
  },
  {
    "id": 3674272,
    "name": "Mountain",
    "state": "",
    "country": "CO",
    "coord": {
      "lon": -81.366669,
      "lat": 13.36667
    }
  },
  {
    "id": 3674292,
    "name": "Mosquera",
    "state": "",
    "country": "CO",
    "coord": {
      "lon": -74.230209,
      "lat": 4.70592
    }
  },
  {
    "id": 3674293,
    "name": "Mosquera",
    "state": "",
    "country": "CO",
    "coord": {
      "lon": -78.451103,
      "lat": 2.50861
    }
  },
  {
    "id": 3674337,
    "name": "Morroa",
    "state": "",
    "country": "CO",
    "coord": {
      "lon": -75.30542,
      "lat": 9.33348
    }
  },
  {
    "id": 3674393,
    "name": "Morelia",
    "state": "",
    "country": "CO",
    "coord": {
      "lon": -75.725807,
      "lat": 1.48747
    }
  },
  {
    "id": 3674412,
    "name": "Morales",
    "state": "",
    "country": "CO",
    "coord": {
      "lon": -73.868843,
      "lat": 8.2752
    }
  },
  {
    "id": 3674453,
    "name": "Montería",
    "state": "",
    "country": "CO",
    "coord": {
      "lon": -75.881432,
      "lat": 8.74798
    }
  },
  {
    "id": 3674463,
    "name": "Montenegro",
    "state": "",
    "country": "CO",
    "coord": {
      "lon": -75.751106,
      "lat": 4.56639
    }
  },
  {
    "id": 3674470,
    "name": "Montelíbano",
    "state": "",
    "country": "CO",
    "coord": {
      "lon": -75.422928,
      "lat": 7.98288
    }
  },
  {
    "id": 3674499,
    "name": "Montecristo",
    "state": "",
    "country": "CO",
    "coord": {
      "lon": -74.473297,
      "lat": 8.2971
    }
  },
  {
    "id": 3674519,
    "name": "Montebello",
    "state": "",
    "country": "CO",
    "coord": {
      "lon": -75.527496,
      "lat": 5.94806
    }
  },
  {
    "id": 3674569,
    "name": "Moñitos",
    "state": "",
    "country": "CO",
    "coord": {
      "lon": -76.050003,
      "lat": 8.25
    }
  },
  {
    "id": 3674572,
    "name": "Moniquirá",
    "state": "",
    "country": "CO",
    "coord": {
      "lon": -73.572838,
      "lat": 5.87638
    }
  },
  {
    "id": 3674576,
    "name": "Monguí",
    "state": "",
    "country": "CO",
    "coord": {
      "lon": -72.849083,
      "lat": 5.72151
    }
  },
  {
    "id": 3674580,
    "name": "Mongua",
    "state": "",
    "country": "CO",
    "coord": {
      "lon": -72.803391,
      "lat": 5.75084
    }
  },
  {
    "id": 3674597,
    "name": "Mompós",
    "state": "",
    "country": "CO",
    "coord": {
      "lon": -74.426666,
      "lat": 9.24194
    }
  },
  {
    "id": 3674603,
    "name": "Momil",
    "state": "",
    "country": "CO",
    "coord": {
      "lon": -75.674889,
      "lat": 9.23768
    }
  },
  {
    "id": 3674618,
    "name": "Molagavita",
    "state": "",
    "country": "CO",
    "coord": {
      "lon": -72.808746,
      "lat": 6.67315
    }
  },
  {
    "id": 3674640,
    "name": "Mogotes",
    "state": "",
    "country": "CO",
    "coord": {
      "lon": -72.970459,
      "lat": 6.47559
    }
  },
  {
    "id": 3674654,
    "name": "Mocoa",
    "state": "",
    "country": "CO",
    "coord": {
      "lon": -76.646606,
      "lat": 1.14933
    }
  },
  {
    "id": 3674676,
    "name": "Mitú",
    "state": "",
    "country": "CO",
    "coord": {
      "lon": -70.173332,
      "lat": 1.19833
    }
  },
  {
    "id": 3674678,
    "name": "Mistrató",
    "state": "",
    "country": "CO",
    "coord": {
      "lon": -75.883217,
      "lat": 5.2973
    }
  },
  {
    "id": 3674702,
    "name": "Miranda",
    "state": "",
    "country": "CO",
    "coord": {
      "lon": -76.228142,
      "lat": 3.24991
    }
  },
  {
    "id": 3674735,
    "name": "Miraflores",
    "state": "",
    "country": "CO",
    "coord": {
      "lon": -73.145042,
      "lat": 5.19608
    }
  },
  {
    "id": 3674740,
    "name": "Miraflores",
    "state": "",
    "country": "CO",
    "coord": {
      "lon": -71.951111,
      "lat": 1.33667
    }
  },
  {
    "id": 3674784,
    "name": "Milán",
    "state": "",
    "country": "CO",
    "coord": {
      "lon": -75.511673,
      "lat": 1.29205
    }
  },
  {
    "id": 3674810,
    "name": "Departamento del Meta",
    "state": "",
    "country": "CO",
    "coord": {
      "lon": -73.0,
      "lat": 3.5
    }
  },
  {
    "id": 3674851,
    "name": "Mercaderes",
    "state": "",
    "country": "CO",
    "coord": {
      "lon": -77.165962,
      "lat": 1.80094
    }
  },
  {
    "id": 3674885,
    "name": "Melgar",
    "state": "",
    "country": "CO",
    "coord": {
      "lon": -74.640747,
      "lat": 4.20475
    }
  },
  {
    "id": 3674931,
    "name": "Medina",
    "state": "",
    "country": "CO",
    "coord": {
      "lon": -73.349823,
      "lat": 4.51005
    }
  },
  {
    "id": 3674962,
    "name": "Medellín",
    "state": "",
    "country": "CO",
    "coord": {
      "lon": -75.563591,
      "lat": 6.25184
    }
  },
  {
    "id": 3675118,
    "name": "Matanza",
    "state": "",
    "country": "CO",
    "coord": {
      "lon": -73.01516,
      "lat": 7.32233
    }
  },
  {
    "id": 3675191,
    "name": "Marulanda",
    "state": "",
    "country": "CO",
    "coord": {
      "lon": -75.260162,
      "lat": 5.28393
    }
  },
  {
    "id": 3675212,
    "name": "Marsella",
    "state": "",
    "country": "CO",
    "coord": {
      "lon": -75.737778,
      "lat": 4.93722
    }
  },
  {
    "id": 3675234,
    "name": "Marquetalia",
    "state": "",
    "country": "CO",
    "coord": {
      "lon": -75.054962,
      "lat": 5.29659
    }
  },
  {
    "id": 3675242,
    "name": "Marmato",
    "state": "",
    "country": "CO",
    "coord": {
      "lon": -75.592667,
      "lat": 5.47843
    }
  },
  {
    "id": 3675252,
    "name": "San Sebastián de Mariquita",
    "state": "",
    "country": "CO",
    "coord": {
      "lon": -74.892952,
      "lat": 5.19889
    }
  },
  {
    "id": 3675255,
    "name": "Maripí",
    "state": "",
    "country": "CO",
    "coord": {
      "lon": -74.008614,
      "lat": 5.55194
    }
  },
  {
    "id": 3675263,
    "name": "Marinilla",
    "state": "",
    "country": "CO",
    "coord": {
      "lon": -75.336212,
      "lat": 6.17358
    }
  },
  {
    "id": 3675287,
    "name": "María la Baja",
    "state": "",
    "country": "CO",
    "coord": {
      "lon": -75.301552,
      "lat": 9.9832
    }
  },
  {
    "id": 3675305,
    "name": "Margarita",
    "state": "",
    "country": "CO",
    "coord": {
      "lon": -74.266182,
      "lat": 9.15596
    }
  },
  {
    "id": 3675409,
    "name": "Manzanares",
    "state": "",
    "country": "CO",
    "coord": {
      "lon": -75.156937,
      "lat": 5.32472
    }
  },
  {
    "id": 3675432,
    "name": "Manta",
    "state": "",
    "country": "CO",
    "coord": {
      "lon": -73.541153,
      "lat": 5.00864
    }
  },
  {
    "id": 3675443,
    "name": "Manizales",
    "state": "",
    "country": "CO",
    "coord": {
      "lon": -75.51738,
      "lat": 5.06889
    }
  },
  {
    "id": 3675452,
    "name": "Maní",
    "state": "",
    "country": "CO",
    "coord": {
      "lon": -72.288612,
      "lat": 4.81722
    }
  },
  {
    "id": 3675504,
    "name": "Manaure",
    "state": "",
    "country": "CO",
    "coord": {
      "lon": -72.444473,
      "lat": 11.77505
    }
  },
  {
    "id": 3675512,
    "name": "Manatí",
    "state": "",
    "country": "CO",
    "coord": {
      "lon": -74.958687,
      "lat": 10.44589
    }
  },
  {
    "id": 3675595,
    "name": "Malambo",
    "state": "",
    "country": "CO",
    "coord": {
      "lon": -74.773857,
      "lat": 10.85953
    }
  },
  {
    "id": 3675605,
    "name": "Málaga",
    "state": "",
    "country": "CO",
    "coord": {
      "lon": -72.73233,
      "lat": 6.69903
    }
  },
  {
    "id": 3675637,
    "name": "Majagual",
    "state": "",
    "country": "CO",
    "coord": {
      "lon": -74.620377,
      "lat": 8.53886
    }
  },
  {
    "id": 3675657,
    "name": "Maicao",
    "state": "",
    "country": "CO",
    "coord": {
      "lon": -72.24321,
      "lat": 11.38321
    }
  },
  {
    "id": 3675668,
    "name": "Mahates",
    "state": "",
    "country": "CO",
    "coord": {
      "lon": -75.18985,
      "lat": 10.23293
    }
  },
  {
    "id": 3675686,
    "name": "Departamento del Magdalena",
    "state": "",
    "country": "CO",
    "coord": {
      "lon": -74.5,
      "lat": 10.0
    }
  },
  {
    "id": 3675692,
    "name": "Magangué",
    "state": "",
    "country": "CO",
    "coord": {
      "lon": -74.754669,
      "lat": 9.24202
    }
  },
  {
    "id": 3675707,
    "name": "Madrid",
    "state": "",
    "country": "CO",
    "coord": {
      "lon": -74.264191,
      "lat": 4.73244
    }
  },
  {
    "id": 3675757,
    "name": "Machetá",
    "state": "",
    "country": "CO",
    "coord": {
      "lon": -73.607613,
      "lat": 5.08154
    }
  },
  {
    "id": 3675768,
    "name": "Maceo",
    "state": "",
    "country": "CO",
    "coord": {
      "lon": -74.787422,
      "lat": 6.55196
    }
  },
  {
    "id": 3675780,
    "name": "Macaravita",
    "state": "",
    "country": "CO",
    "coord": {
      "lon": -72.592987,
      "lat": 6.50567
    }
  },
  {
    "id": 3675791,
    "name": "Macanal",
    "state": "",
    "country": "CO",
    "coord": {
      "lon": -73.319588,
      "lat": 4.97214
    }
  },
  {
    "id": 3675808,
    "name": "Mabobo",
    "state": "",
    "country": "CO",
    "coord": {
      "lon": -75.170479,
      "lat": 8.43372
    }
  },
  {
    "id": 3675826,
    "name": "Luruaco",
    "state": "",
    "country": "CO",
    "coord": {
      "lon": -75.143089,
      "lat": 10.60921
    }
  },
  {
    "id": 3675857,
    "name": "Lourdes",
    "state": "",
    "country": "CO",
    "coord": {
      "lon": -72.832527,
      "lat": 7.94411
    }
  },
  {
    "id": 3675975,
    "name": "Los Patios",
    "state": "",
    "country": "CO",
    "coord": {
      "lon": -72.5037,
      "lat": 7.83793
    }
  },
  {
    "id": 3675987,
    "name": "Los Palmitos",
    "state": "",
    "country": "CO",
    "coord": {
      "lon": -75.267693,
      "lat": 9.37899
    }
  },
  {
    "id": 3676205,
    "name": "Los Córdobas",
    "state": "",
    "country": "CO",
    "coord": {
      "lon": -76.354553,
      "lat": 8.89403
    }
  },
  {
    "id": 3676397,
    "name": "Lorica",
    "state": "",
    "country": "CO",
    "coord": {
      "lon": -75.813499,
      "lat": 9.23648
    }
  },
  {
    "id": 3676417,
    "name": "López",
    "state": "",
    "country": "CO",
    "coord": {
      "lon": -76.800003,
      "lat": 2.43333
    }
  },
  {
    "id": 3676477,
    "name": "Lloró",
    "state": "",
    "country": "CO",
    "coord": {
      "lon": -76.549454,
      "lat": 5.49605
    }
  },
  {
    "id": 3676540,
    "name": "Linares",
    "state": "",
    "country": "CO",
    "coord": {
      "lon": -77.527252,
      "lat": 1.35783
    }
  },
  {
    "id": 3676591,
    "name": "Liborina",
    "state": "",
    "country": "CO",
    "coord": {
      "lon": -75.81218,
      "lat": 6.6779
    }
  },
  {
    "id": 3676604,
    "name": "Líbano",
    "state": "",
    "country": "CO",
    "coord": {
      "lon": -75.062317,
      "lat": 4.9218
    }
  },
  {
    "id": 3676623,
    "name": "Leticia",
    "state": "",
    "country": "CO",
    "coord": {
      "lon": -69.940559,
      "lat": -4.21528
    }
  },
  {
    "id": 3676626,
    "name": "Lérida",
    "state": "",
    "country": "CO",
    "coord": {
      "lon": -74.909767,
      "lat": 4.86242
    }
  },
  {
    "id": 3676644,
    "name": "Lenguazaque",
    "state": "",
    "country": "CO",
    "coord": {
      "lon": -73.711517,
      "lat": 5.30711
    }
  },
  {
    "id": 3676661,
    "name": "Leiva",
    "state": "",
    "country": "CO",
    "coord": {
      "lon": -77.302528,
      "lat": 1.93389
    }
  },
  {
    "id": 3676674,
    "name": "Lebrija",
    "state": "",
    "country": "CO",
    "coord": {
      "lon": -73.217796,
      "lat": 7.11317
    }
  },
  {
    "id": 3676720,
    "name": "La Virginia",
    "state": "",
    "country": "CO",
    "coord": {
      "lon": -75.8825,
      "lat": 4.89972
    }
  },
  {
    "id": 3676791,
    "name": "La Victoria",
    "state": "",
    "country": "CO",
    "coord": {
      "lon": -76.037376,
      "lat": 4.52271
    }
  },
  {
    "id": 3676795,
    "name": "La Victoria",
    "state": "",
    "country": "CO",
    "coord": {
      "lon": -75.901016,
      "lat": 1.80671
    }
  },
  {
    "id": 3676864,
    "name": "La Vega",
    "state": "",
    "country": "CO",
    "coord": {
      "lon": -74.33979,
      "lat": 4.99779
    }
  },
  {
    "id": 3676868,
    "name": "La Vega",
    "state": "",
    "country": "CO",
    "coord": {
      "lon": -76.780281,
      "lat": 2.00628
    }
  },
  {
    "id": 3676884,
    "name": "La Uvita",
    "state": "",
    "country": "CO",
    "coord": {
      "lon": -72.560318,
      "lat": 6.31684
    }
  },
  {
    "id": 3676912,
    "name": "La Unión",
    "state": "",
    "country": "CO",
    "coord": {
      "lon": -75.280563,
      "lat": 8.86056
    }
  },
  {
    "id": 3676923,
    "name": "La Unión",
    "state": "",
    "country": "CO",
    "coord": {
      "lon": -75.361954,
      "lat": 5.97431
    }
  },
  {
    "id": 3676928,
    "name": "La Unión",
    "state": "",
    "country": "CO",
    "coord": {
      "lon": -76.10318,
      "lat": 4.53282
    }
  },
  {
    "id": 3676934,
    "name": "La Unión",
    "state": "",
    "country": "CO",
    "coord": {
      "lon": -77.131523,
      "lat": 1.6045
    }
  },
  {
    "id": 3677010,
    "name": "La Tebaida",
    "state": "",
    "country": "CO",
    "coord": {
      "lon": -75.78746,
      "lat": 4.45265
    }
  },
  {
    "id": 3677457,
    "name": "La Sierra",
    "state": "",
    "country": "CO",
    "coord": {
      "lon": -76.76265,
      "lat": 2.17835
    }
  },
  {
    "id": 3678000,
    "name": "La Primavera",
    "state": "",
    "country": "CO",
    "coord": {
      "lon": -70.409172,
      "lat": 5.49056
    }
  },
  {
    "id": 3678083,
    "name": "La Playa",
    "state": "",
    "country": "CO",
    "coord": {
      "lon": -73.241386,
      "lat": 8.21639
    }
  },
  {
    "id": 3678097,
    "name": "La Plata",
    "state": "",
    "country": "CO",
    "coord": {
      "lon": -75.892319,
      "lat": 2.39341
    }
  },
  {
    "id": 3678118,
    "name": "La Pintada",
    "state": "",
    "country": "CO",
    "coord": {
      "lon": -75.606262,
      "lat": 5.74867
    }
  },
  {
    "id": 3678167,
    "name": "La Peña",
    "state": "",
    "country": "CO",
    "coord": {
      "lon": -74.393677,
      "lat": 5.19847
    }
  },
  {
    "id": 3678186,
    "name": "La Paz",
    "state": "",
    "country": "CO",
    "coord": {
      "lon": -73.173317,
      "lat": 10.38439
    }
  },
  {
    "id": 3678190,
    "name": "La Paz",
    "state": "",
    "country": "CO",
    "coord": {
      "lon": -73.589478,
      "lat": 6.17848
    }
  },
  {
    "id": 3678328,
    "name": "Landázuri",
    "state": "",
    "country": "CO",
    "coord": {
      "lon": -73.811211,
      "lat": 6.21826
    }
  },
  {
    "id": 3678345,
    "name": "La Muerte",
    "state": "",
    "country": "CO",
    "coord": {
      "lon": -75.378883,
      "lat": 8.78282
    }
  },
  {
    "id": 3678363,
    "name": "La Montañita",
    "state": "",
    "country": "CO",
    "coord": {
      "lon": -75.439796,
      "lat": 1.4766
    }
  },
  {
    "id": 3678405,
    "name": "La Mesa",
    "state": "",
    "country": "CO",
    "coord": {
      "lon": -73.916672,
      "lat": 5.26667
    }
  },
  {
    "id": 3678413,
    "name": "La Merced",
    "state": "",
    "country": "CO",
    "coord": {
      "lon": -74.069221,
      "lat": 4.6213
    }
  },
  {
    "id": 3678415,
    "name": "La Merced",
    "state": "",
    "country": "CO",
    "coord": {
      "lon": -75.88472,
      "lat": 5.40194
    }
  },
  {
    "id": 3678502,
    "name": "La Mana",
    "state": "",
    "country": "CO",
    "coord": {
      "lon": -74.01667,
      "lat": 4.88333
    }
  },
  {
    "id": 3678575,
    "name": "La Llanada",
    "state": "",
    "country": "CO",
    "coord": {
      "lon": -77.583473,
      "lat": 1.48997
    }
  },
  {
    "id": 3678674,
    "name": "La Jagua de Ibirico",
    "state": "",
    "country": "CO",
    "coord": {
      "lon": -73.334053,
      "lat": 9.56228
    }
  },
  {
    "id": 3678702,
    "name": "La Isla",
    "state": "",
    "country": "CO",
    "coord": {
      "lon": -75.933327,
      "lat": 4.26667
    }
  },
  {
    "id": 3678847,
    "name": "Departamento de La Guajira",
    "state": "",
    "country": "CO",
    "coord": {
      "lon": -72.5,
      "lat": 11.5
    }
  },
  {
    "id": 3678907,
    "name": "La Gloria",
    "state": "",
    "country": "CO",
    "coord": {
      "lon": -73.80265,
      "lat": 8.61868
    }
  },
  {
    "id": 3679007,
    "name": "La Florida",
    "state": "",
    "country": "CO",
    "coord": {
      "lon": -77.406143,
      "lat": 1.29851
    }
  },
  {
    "id": 3679065,
    "name": "La Estrella",
    "state": "",
    "country": "CO",
    "coord": {
      "lon": -75.643173,
      "lat": 6.15769
    }
  },
  {
    "id": 3679130,
    "name": "La Esperanza",
    "state": "",
    "country": "CO",
    "coord": {
      "lon": -72.463989,
      "lat": 8.21043
    }
  },
  {
    "id": 3679277,
    "name": "La Dorada",
    "state": "",
    "country": "CO",
    "coord": {
      "lon": -74.663109,
      "lat": 5.44783
    }
  },
  {
    "id": 3679379,
    "name": "La Cruz",
    "state": "",
    "country": "CO",
    "coord": {
      "lon": -76.969009,
      "lat": 1.60301
    }
  },
  {
    "id": 3679505,
    "name": "La Chorrera",
    "state": "",
    "country": "CO",
    "coord": {
      "lon": -74.349998,
      "lat": 4.66667
    }
  },
  {
    "id": 3679542,
    "name": "La Celia",
    "state": "",
    "country": "CO",
    "coord": {
      "lon": -76.01667,
      "lat": 5.04333
    }
  },
  {
    "id": 3679554,
    "name": "La Ceja",
    "state": "",
    "country": "CO",
    "coord": {
      "lon": -75.431503,
      "lat": 6.03082
    }
  },
  {
    "id": 3679556,
    "name": "La Ceibita",
    "state": "",
    "country": "CO",
    "coord": {
      "lon": -74.783333,
      "lat": 10.88333
    }
  },
  {
    "id": 3679622,
    "name": "La Capilla",
    "state": "",
    "country": "CO",
    "coord": {
      "lon": -73.475273,
      "lat": 5.70493
    }
  },
  {
    "id": 3679660,
    "name": "La Calera",
    "state": "",
    "country": "CO",
    "coord": {
      "lon": -73.969261,
      "lat": 4.72069
    }
  },
  {
    "id": 3679661,
    "name": "La Calera",
    "state": "",
    "country": "CO",
    "coord": {
      "lon": -73.98333,
      "lat": 4.38333
    }
  },
  {
    "id": 3679716,
    "name": "Labranzagrande",
    "state": "",
    "country": "CO",
    "coord": {
      "lon": -72.574989,
      "lat": 5.56223
    }
  },
  {
    "id": 3679776,
    "name": "La Belleza",
    "state": "",
    "country": "CO",
    "coord": {
      "lon": -73.96167,
      "lat": 5.86371
    }
  },
  {
    "id": 3679778,
    "name": "Bella Suiza",
    "state": "",
    "country": "CO",
    "coord": {
      "lon": -74.034599,
      "lat": 4.70898
    }
  },
  {
    "id": 3679780,
    "name": "Labateca",
    "state": "",
    "country": "CO",
    "coord": {
      "lon": -72.494431,
      "lat": 7.29847
    }
  },
  {
    "id": 3680090,
    "name": "Juradó",
    "state": "",
    "country": "CO",
    "coord": {
      "lon": -77.76413,
      "lat": 7.10534
    }
  },
  {
    "id": 3680113,
    "name": "Junín",
    "state": "",
    "country": "CO",
    "coord": {
      "lon": -73.66011,
      "lat": 4.79027
    }
  },
  {
    "id": 3680176,
    "name": "Juan de Acosta",
    "state": "",
    "country": "CO",
    "coord": {
      "lon": -75.033409,
      "lat": 10.82813
    }
  },
  {
    "id": 3680317,
    "name": "Jericó",
    "state": "",
    "country": "CO",
    "coord": {
      "lon": -75.786011,
      "lat": 5.79211
    }
  },
  {
    "id": 3680335,
    "name": "Jenesano",
    "state": "",
    "country": "CO",
    "coord": {
      "lon": -73.36364,
      "lat": 5.38541
    }
  },
  {
    "id": 3680349,
    "name": "Java",
    "state": "",
    "country": "CO",
    "coord": {
      "lon": -74.433327,
      "lat": 4.51667
    }
  },
  {
    "id": 3680366,
    "name": "Jardín",
    "state": "",
    "country": "CO",
    "coord": {
      "lon": -75.819763,
      "lat": 5.59902
    }
  },
  {
    "id": 3680387,
    "name": "Jamundí",
    "state": "",
    "country": "CO",
    "coord": {
      "lon": -76.534988,
      "lat": 3.26074
    }
  },
  {
    "id": 3680393,
    "name": "Jambaló",
    "state": "",
    "country": "CO",
    "coord": {
      "lon": -76.322578,
      "lat": 2.79225
    }
  },
  {
    "id": 3680434,
    "name": "Ituango",
    "state": "",
    "country": "CO",
    "coord": {
      "lon": -75.764038,
      "lat": 7.17117
    }
  },
  {
    "id": 3680450,
    "name": "Itagüí",
    "state": "",
    "country": "CO",
    "coord": {
      "lon": -75.611389,
      "lat": 6.17194
    }
  },
  {
    "id": 3680453,
    "name": "Istmina",
    "state": "",
    "country": "CO",
    "coord": {
      "lon": -76.683968,
      "lat": 5.16054
    }
  },
  {
    "id": 3680491,
    "name": "Iscuandé",
    "state": "",
    "country": "CO",
    "coord": {
      "lon": -77.979362,
      "lat": 2.45007
    }
  },
  {
    "id": 3680531,
    "name": "Íquira",
    "state": "",
    "country": "CO",
    "coord": {
      "lon": -75.634567,
      "lat": 2.64867
    }
  },
  {
    "id": 3680539,
    "name": "Ipiales",
    "state": "",
    "country": "CO",
    "coord": {
      "lon": -77.64959,
      "lat": 0.83018
    }
  },
  {
    "id": 3680554,
    "name": "Inzá",
    "state": "",
    "country": "CO",
    "coord": {
      "lon": -76.06546,
      "lat": 2.5513
    }
  },
  {
    "id": 3680601,
    "name": "Imués",
    "state": "",
    "country": "CO",
    "coord": {
      "lon": -77.500443,
      "lat": 1.06072
    }
  },
  {
    "id": 3680616,
    "name": "Iles",
    "state": "",
    "country": "CO",
    "coord": {
      "lon": -77.527412,
      "lat": 0.97491
    }
  },
  {
    "id": 3680641,
    "name": "Icononzo",
    "state": "",
    "country": "CO",
    "coord": {
      "lon": -74.532539,
      "lat": 4.17698
    }
  },
  {
    "id": 3680656,
    "name": "Ibagué",
    "state": "",
    "country": "CO",
    "coord": {
      "lon": -75.232224,
      "lat": 4.43889
    }
  },
  {
    "id": 3680692,
    "name": "Departamento del Huila",
    "state": "",
    "country": "CO",
    "coord": {
      "lon": -75.75,
      "lat": 2.5
    }
  },
  {
    "id": 3680840,
    "name": "Honda",
    "state": "",
    "country": "CO",
    "coord": {
      "lon": -74.73584,
      "lat": 5.20856
    }
  },
  {
    "id": 3680854,
    "name": "Hobo",
    "state": "",
    "country": "CO",
    "coord": {
      "lon": -75.449997,
      "lat": 2.58333
    }
  },
  {
    "id": 3680857,
    "name": "Hispania",
    "state": "",
    "country": "CO",
    "coord": {
      "lon": -75.907181,
      "lat": 5.79925
    }
  },
  {
    "id": 3680880,
    "name": "Herveo",
    "state": "",
    "country": "CO",
    "coord": {
      "lon": -75.166672,
      "lat": 5.08333
    }
  },
  {
    "id": 3680886,
    "name": "Herrán",
    "state": "",
    "country": "CO",
    "coord": {
      "lon": -72.483322,
      "lat": 7.50611
    }
  },
  {
    "id": 3680902,
    "name": "Heliconia",
    "state": "",
    "country": "CO",
    "coord": {
      "lon": -75.733673,
      "lat": 6.20689
    }
  },
  {
    "id": 3681008,
    "name": "Municipio Hato Corozal",
    "state": "",
    "country": "CO",
    "coord": {
      "lon": -71.763718,
      "lat": 6.15676
    }
  },
  {
    "id": 3681025,
    "name": "Hato",
    "state": "",
    "country": "CO",
    "coord": {
      "lon": -73.308258,
      "lat": 6.54302
    }
  },
  {
    "id": 3681029,
    "name": "Hatillo de Loba",
    "state": "",
    "country": "CO",
    "coord": {
      "lon": -74.078201,
      "lat": 8.95635
    }
  },
  {
    "id": 3681168,
    "name": "Hacarí",
    "state": "",
    "country": "CO",
    "coord": {
      "lon": -73.148888,
      "lat": 8.32333
    }
  },
  {
    "id": 3681175,
    "name": "Gutiérrez",
    "state": "",
    "country": "CO",
    "coord": {
      "lon": -74.002502,
      "lat": 4.25472
    }
  },
  {
    "id": 3681222,
    "name": "Güicán",
    "state": "",
    "country": "CO",
    "coord": {
      "lon": -72.411293,
      "lat": 6.46184
    }
  },
  {
    "id": 3681234,
    "name": "Güepsa",
    "state": "",
    "country": "CO",
    "coord": {
      "lon": -73.573128,
      "lat": 6.02505
    }
  },
  {
    "id": 3681255,
    "name": "Guayatá",
    "state": "",
    "country": "CO",
    "coord": {
      "lon": -73.487503,
      "lat": 4.96417
    }
  },
  {
    "id": 3681303,
    "name": "Guayabetal",
    "state": "",
    "country": "CO",
    "coord": {
      "lon": -73.817192,
      "lat": 4.21472
    }
  },
  {
    "id": 3681306,
    "name": "Guayabal de Síquima",
    "state": "",
    "country": "CO",
    "coord": {
      "lon": -74.467438,
      "lat": 4.87739
    }
  },
  {
    "id": 3681344,
    "name": "Departamento del Guaviare",
    "state": "",
    "country": "CO",
    "coord": {
      "lon": -72.820282,
      "lat": 1.68944
    }
  },
  {
    "id": 3681353,
    "name": "Guática",
    "state": "",
    "country": "CO",
    "coord": {
      "lon": -75.798264,
      "lat": 5.31569
    }
  },
  {
    "id": 3681356,
    "name": "Guateque",
    "state": "",
    "country": "CO",
    "coord": {
      "lon": -73.47274,
      "lat": 5.00619
    }
  },
  {
    "id": 3681360,
    "name": "Guatavita",
    "state": "",
    "country": "CO",
    "coord": {
      "lon": -73.833138,
      "lat": 4.93658
    }
  },
  {
    "id": 3681364,
    "name": "Guataquí",
    "state": "",
    "country": "CO",
    "coord": {
      "lon": -74.789352,
      "lat": 4.51573
    }
  },
  {
    "id": 3681368,
    "name": "Guatapé",
    "state": "",
    "country": "CO",
    "coord": {
      "lon": -75.158638,
      "lat": 6.23274
    }
  },
  {
    "id": 3681404,
    "name": "Guasca",
    "state": "",
    "country": "CO",
    "coord": {
      "lon": -73.87748,
      "lat": 4.86601
    }
  },
  {
    "id": 3681429,
    "name": "Guarne",
    "state": "",
    "country": "CO",
    "coord": {
      "lon": -75.443542,
      "lat": 6.28046
    }
  },
  {
    "id": 3681491,
    "name": "Guapotá",
    "state": "",
    "country": "CO",
    "coord": {
      "lon": -73.320198,
      "lat": 6.30798
    }
  },
  {
    "id": 3681505,
    "name": "Guapí",
    "state": "",
    "country": "CO",
    "coord": {
      "lon": -77.885422,
      "lat": 2.57082
    }
  },
  {
    "id": 3681563,
    "name": "Guamo",
    "state": "",
    "country": "CO",
    "coord": {
      "lon": -74.9701,
      "lat": 4.03078
    }
  },